"","id","finish_date","year","street_number","street","cross_street","year_installed","material","diameter","leak_type","lon","lat","city","agency"
"1",1,"2014-10-23",2014,222,"WALNUT ST","WASHINGTON ST",1891,"CI","6",NA,-122.448918055556,37.7895130555556,"SAN FRANCISCO","SF WATER"
"2",2,"2014-10-21",2014,NA,"22ND ST","VERMONT ST",1897,"CI","12","SPLIT ON MAIN",-122.403935555556,37.7569322222222,"SAN FRANCISCO","SF WATER"
"3",3,"2014-12-29",2014,NA,"LISBON ST","RUSSIA ST",1902,"CI","6","CIRCUMFERENTIAL",-122.4347,37.7204,"SAN FRANCISCO","SF WATER"
"4",4,"2014-12-03",2014,NA,"6TH AVE","LAKE ST",1905,"CI","8","SINK HOLE",-122.4647,37.7867,"SAN FRANCISCO","SF WATER"
"5",5,"2014-10-01",2014,NA,"RANDALL ST","HARPER ST",1925,"CI","6",NA,-122.429918055556,37.740705,"SAN FRANCISCO","SF WATER"
"6",6,"2014-11-13",2014,8,"NAVAJO","CAYUGA",1927,"CI","4","LONGITUDINAL",-122.443222222222,37.7195055555556,"SAN FRANCISCO","SF WATER"
"7",7,"2014-10-17",2014,24,"DANVERS ST","MARKET ST",1931,"CI","6","HOLE",-122.443816111111,37.7610277777778,"SAN FRANCISCO","SF WATER"
"8",8,"2014-11-03",2014,NA,"DANVERS","MERRITT",1931,"CI","6","LONGITUDINAL",-122.443741666667,37.7609111111111,"SAN FRANCISCO","SF WATER"
"9",9,"2014-11-10",2014,1670,"43RD","MORAGA",1931,"CI","8","LONGITUDINAL",-122.502302777778,37.7554583333333,"SAN FRANCISCO","SF WATER"
"10",10,"2014-10-17",2014,NA,"LAWRENCE AVE","DE WOLF ST",1933,"CI","2",NA,-122.453583611111,37.7115633333333,"SAN FRANCISCO","SF WATER"
"11",11,"2014-12-13",2014,NA,"DWIGHT ST","GIRARD ST",1935,"CI","8","CIRCUMFERENTIAL",-122.4031,37.724,"SAN FRANCISCO","SF WATER"
"12",12,"2014-11-10",2014,191,"MAYNARD","CONGDON",1936,"CI","6",NA,-122.426269444444,37.7294194444444,"SAN FRANCISCO","SF WATER"
"13",13,"2014-11-24",2014,101,"ROLPH","PARIS",1936,"CI","8",NA,-122.44025,37.7150861111111,"SAN FRANCISCO","SF WATER"
"14",14,"2014-12-19",2014,4305,"24TH ST","DOUGLASS ST",1936,"CI","12","CIRCUMFERENTIAL & LONGITUDINAL",-122.4389,37.751,"SAN FRANCISCO","SF WATER"
"15",15,"2014-12-02",2014,41,"FEDERAL ST","RINCON ST",1939,"CI","8","HOLE/CIRCUMFERENTIAL",-122.3917,37.7838,"SAN FRANCISCO","SF WATER"
"16",16,"2014-11-05",2014,NA,"RIO","EL SERENO",1940,"CI","4","CIRCUMFERENTIAL",-122.446366666667,37.7387055555556,"SAN FRANCISCO","SF WATER"
"17",17,"2014-11-28",2014,NA,"INDUSTRIAL","PALOU",1947,"CI","8","LONGITUDINAL",-122.401711111111,37.7395027777778,"SAN FRANCISCO","SF WATER"
"18",18,"2014-10-18",2014,NA,"MORNINGSIDE DR","GELLERT DR",1948,"CI","8","CIRCUMFERENTIAL",-122.453583611111,37.7292755555556,"SAN FRANCISCO","SF WATER"
"19",19,"2014-11-16",2014,NA,"FELTON","PERU",1950,"CI","8","CIRCUMFERENTIAL",-122.423341666667,37.7252305555556,"SAN FRANCISCO","SF WATER"
"20",20,"2014-10-03",2014,NA,"KEITH ST","KEY ST",1953,"CI","12","LONGITUDINAL/CIRCUMFERENTIAL",-122.398231944444,37.720125,"SAN FRANCISCO","SF WATER"
"21",21,"2014-11-17",2014,319,"LAIDLEY","MIGUEL",1953,"CI","12","CIRCUMFERENTIAL",-122.428438888889,37.7376583333333,"SAN FRANCISCO","SF WATER"
"22",22,"2014-12-31",2014,NA,"GLENBROOK AVE","PALO ALTO AVE",1958,"CI","8","CIRCUMFERENTIAL",-122.4511,37.7567,"SAN FRANCISCO","SF WATER"
"23",23,"2014-12-04",2014,NA,"BROTHERHOOD WAY","CHUMASERO DR",1961,"CI","8","LONGITUDINAL",-122.4736,37.7132,"SAN FRANCISCO","SF WATER"
"24",24,"2014-11-03",2014,NA,"BERTITA","SENECA",1963,"CI","8",NA,-122.440611111111,37.7184861111111,"SAN FRANCISCO","SF WATER"
"25",25,"2014-11-17",2014,33,"ALBION","15TH",1963,"CI","6","CIRCUMFERENTIAL",-122.423202777778,37.7660361111111,"SAN FRANCISCO","SF WATER"
"26",26,"2012-06-02",2012,243,"JOICE","CLAY",1865,"CI","4",NA,-122.408711111111,37.7938802777778,"SAN FRANCISCO","SF WATER"
"27",27,NA,2012,NA,"716 WALLER ST","DIVISADERO",1884,"CI","6","LONGITUDINAL",-122.436,37.7705,"SAN FRANCISCO","SF WATER"
"28",28,"2012-11-01",2012,182,"HARTFORD STREET","19TH STREET",1888,"CI","6","T",-122.433805555556,37.7596944444444,"SAN FRANCISCO","SF WATER"
"29",29,"2012-11-04",2012,NA,"25TH STREET","DOLORES",1888,"CI","8","LONGITUDINAL",-122.425916666667,37.7502222222222,"SAN FRANCISCO","SF WATER"
"30",30,NA,2012,NA,"DIAMOND ST","MARKET STREET",1891,"CI","6","LONGITUDINAL",-122.437308333333,37.7615944444444,"SAN FRANCISCO","SF WATER"
"31",31,NA,2012,NA,"3232 BUCHANAN ST","LOMBARD",1895,"CI","6","LONGITUDINAL",-122.4325,37.8,"SAN FRANCISCO","SF WATER"
"32",32,"2012-09-02",2012,NA,"CORTLAND","KINGSTON",1896,"CI","8",NA,-122.421230277778,37.7412802777778,"SAN FRANCISCO","SF WATER"
"33",33,NA,2012,NA,"DORE","FOLSOM",1901,"CI","4",NA,-122.412909444444,37.7738508333333,"SAN FRANCISCO","SF WATER"
"34",34,"2012-01-26",2012,NA,"DWIGHT","SAN BRUNO",1902,"CI","8",NA,-122.402048333333,37.7240366666667,"SAN FRANCISCO","SF WATER"
"35",35,"2012-06-08",2012,NA,"MASON ","BEACH",1905,"CI","8",NA,-122.413946944444,37.8075544444444,"SAN FRANCISCO","SF WATER"
"36",36,NA,2012,NA,"914 MINNESOTA ST","22ND ST",1905,"CI","8","CIRCUMFERENTIAL",-122.390386111111,37.7590388888889,"SAN FRANCISCO","SF WATER"
"37",37,"2012-08-01",2012,NA,"BRAZIL ","EDINBURGH",1912,"CI","8",NA,-122.430753333333,37.7227188888889,"SAN FRANCISCO","SF WATER"
"38",38,NA,2012,NA,"EUREKA","17TH STREET",1915,"CI","6","LONGITUDINAL",-122.4385,37.7623333333333,"SAN FRANCISCO","SF WATER"
"39",39,NA,2012,NA,"BAKER ST","FRANCISCO ST",1924,"CI","6",NA,-122.446263055556,37.8005322222222,"SAN FRANCISCO","SF WATER"
"40",40,"2012-08-11",2012,NA,"ROSEWOOD","RAVENWOOD",1927,"CI","6",NA,-122.460693055556,37.7344263888889,"SAN FRANCISCO","SF WATER"
"41",41,"2012-09-15",2012,NA,"CAROLINA ","18TH ST",1927,"CI","6",NA,-122.400375833333,37.7629527777778,"SAN FRANCISCO","SF WATER"
"42",42,NA,2012,NA,"CAROLINA ","MARIPOSA",1927,"CI","6","U",-122.4005,37.7635,"SAN FRANCISCO","SF WATER"
"43",43,"2012-01-17",2012,2624,"ULLOA","28TH",1928,"CI","8",NA,-122.4846825,37.7408341666667,"SAN FRANCISCO","SF WATER"
"44",44,"2012-12-18",2012,NA,"FULTON STREET","48TH AVENUE",1928,"CI","8","SPLIT",-122.5086,37.7715111111111,"SAN FRANCISCO","SF WATER"
"45",45,NA,2012,NA,"REVERE","HAWES",1928,"CI","8",NA,-122.383430833333,37.7278886111111,"SAN FRANCISCO","SF WATER"
"46",46,NA,2012,NA,"NORIEGA","20TH ST",1929,"CI","8",NA,-122.477121666667,37.7542680555556,"SAN FRANCISCO","SF WATER"
"47",47,"2012-12-21",2012,NA,"MONO STREET","19TH STREET",1930,"CI","6","SPLIT",-122.443666666667,37.7589111111111,"SAN FRANCISCO","SF WATER"
"48",48,"2012-01-02",2012,NA,"ALEMANY","ONONDAGA",1933,"CI","8",NA,-122.438466944444,37.7217127777778,"SAN FRANCISCO","SF WATER"
"49",49,"2012-11-01",2012,NA,"JERROLD ","UPTON ",1933,"CI","8","N/A",-122.400472222222,37.7451333333333,"SAN FRANCISCO","SF WATER"
"50",50,"2012-03-20",2012,NA,"FOUNTAIN","25TH ST",1934,"CI","8",NA,-122.441507222222,37.7492361111111,"SAN FRANCISCO","SF WATER"
"51",51,NA,2012,NA,"18TH STREET","CAROLINA STREET",1934,"CI","6","CIRCUMFERENTIAL",-122.4005,37.7623333333333,"SAN FRANCISCO","SF WATER"
"52",52,NA,2012,NA,"FITZGERALD","INGALLS",1934,"CI","8",NA,-122.391231388889,37.7209975,"SAN FRANCISCO","SF WATER"
"53",53,"2012-01-16",2012,50,"SHORT","MARKET",1935,"CI","6",NA,-122.443056111111,37.7578497222222,"SAN FRANCISCO","SF WATER"
"54",54,"2012-01-20",2012,NA,"26TH ST","HAMPSHIRE",1935,"CI","16",NA,-122.406946944444,37.7496894444444,"SAN FRANCISCO","SF WATER"
"55",55,"2012-01-23",2012,350,"COLLINGWOOD","21ST ST",1935,"CI","6",NA,-122.435731944444,37.7566880555556,"SAN FRANCISCO","SF WATER"
"56",56,"2012-07-27",2012,3398,"22ND","GUERRERO",1935,"ST","36",NA,-122.423119444444,37.7552233333333,"SAN FRANCISCO","SF WATER"
"57",57,"2012-12-19",2012,1430,"18TH STREET","CONNECTICUT",1935,"CI","6","CIRCUMFERENTIAL",-122.397266666667,37.7625805555556,"SAN FRANCISCO","SF WATER"
"58",58,"2012-12-26",2012,1674,"47TH AVENUE","MORAGA STREET",1935,"CI","6","CIRCUMFERENTIAL",-122.506583333333,37.7553333333333,"SAN FRANCISCO","SF WATER"
"59",59,"2012-12-27",2012,NA,"SAN BRUNO AVENUE","16TH STREET",1935,"CI","6","CIRCUMFERENTIAL",-122.4055,37.7656944444444,"SAN FRANCISCO","SF WATER"
"60",60,NA,2012,NA,"GUERRERO ST","22ND ST",1935,"ST","36","PIT HOLE",-122.423119444444,37.7551888888889,"SAN FRANCISCO","SF WATER"
"61",61,"2012-01-16",2012,166,"MAYNARD","CONGDON",1936,"CI","6",NA,-122.426783333333,37.7293916666667,"SAN FRANCISCO","SF WATER"
"62",62,"2012-01-17",2012,191,"PRENTISS","BUGINA",1936,"CI","6",NA,-122.411964444444,37.74104,"SAN FRANCISCO","SF WATER"
"63",63,"2012-12-19",2012,NA,"NEVADA STREET","POWHATTAN",1936,"CI","6","CIRCUMFERENTIAL",-122.411197222222,37.7412805555556,"SAN FRANCISCO","SF WATER"
"64",64,NA,2012,NA,"16TH ST","4TH ST",1937,"CI","16","CIRCUMFERENTIAL",-122.39075,37.7667222222222,"SAN FRANCISCO","SF WATER"
"65",65,NA,2012,1251,"CONNECTICUT","CESAR CHAVEZ",1940,"CI","6",NA,-122.396290555556,37.7504438888889,"SAN FRANCISCO","SF WATER"
"66",66,"2012-12-21",2012,NA,"NEWBURG","DUNCAN STREET",1941,"CI","6",NA,-122.4345,37.7458333333333,"SAN FRANCISCO","SF WATER"
"67",67,NA,2012,NA,"239 NEY STREET","CONGDON STREET",1941,"CI","6","LONGITUDINAL",-122.425166666667,37.7301666666667,"SAN FRANCISCO","SF WATER"
"68",68,NA,2012,NA,"2538 3RD STREET","22ND ST",1941,"CI","8","CIRCUMFERENTIAL",-122.388333333333,37.7572777777778,"SAN FRANCISCO","SF WATER"
"69",69,"2012-01-08",2012,1937,"LOMBARD","WEBSTER",1942,"CI","8",NA,-122.433347222222,37.8000736111111,"SAN FRANCISCO","SF WATER"
"70",70,"2012-12-29",2012,2533,"LOMBARD STREET","DIVISADERO STREET",1942,"CI","8","CIRCUMFERENTIAL",-122.443305555556,37.7988055555556,"SAN FRANCISCO","SF WATER"
"71",71,"2012-01-17",2012,NA,"VICENTE","39TH AVE",1944,"CI","6",NA,-122.496809166667,37.7384733333333,"SAN FRANCISCO","SF WATER"
"72",72,"2012-12-21",2012,NA,"SANCHEZ STREET","ALVARADO STREET",1944,"CI","6","CIRCUMFERENTIAL",-122.429916666667,37.7539722222222,"SAN FRANCISCO","SF WATER"
"73",73,"2012-07-18",2012,NA,"42ND AVE","RIVERA",1947,"CI","6",NA,-122.500503333333,37.7451213888889,"SAN FRANCISCO","SF WATER"
"74",74,"2012-11-02",2012,NA,"PALOU AVENUE","INDUSTRIAL STREET",1947,"CI","8","UNK",-122.400972222222,37.7398333333333,"SAN FRANCISCO","SF WATER"
"75",75,"2012-12-15",2012,464,"MOLIMO DRIVE","MYRA WAY",1947,"CI","8","CIRCUMFERENTIAL",-122.451583333333,37.7377638888889,"SAN FRANCISCO","SF WATER"
"76",76,NA,2012,NA,"400 MOLIMO DRIVE","MYRA WAY",1947,"CI","6","CIRCUMFERENTIAL",-122.4515,37.7378333333333,"SAN FRANCISCO","SF WATER"
"77",77,"2012-11-15",2012,NA,"QUINTARA STREET","28TH AVENUE",1949,"CI","8","LONGITUDINAL",-122.485166666667,37.7481666666667,"SAN FRANCISCO","SF WATER"
"78",78,"2012-12-10",2012,146,"CHICAGO WAY","SOUTH HILL BOULEVARD",1949,"CI","8","SPLIT (BREAK AT BELL)",-122.43075,37.7110277777778,"SAN FRANCISCO","SF WATER"
"79",79,"2012-12-24",2012,1,"LAPHAM WAY","CHICAGO WAY",1950,"CI","8",NA,-122.429888888889,37.7105,"SAN FRANCISCO","SF WATER"
"80",80,"2012-12-28",2012,127,"VALMAR TERRACE","PERU AVENUE",1950,"CI","6","CIRCUMFERENTIAL",-122.424444444444,37.7254722222222,"SAN FRANCISCO","SF WATER"
"81",81,"2012-01-19",2012,12,"MOLINO","TERESITA",1952,"CI","6",NA,-122.446271111111,37.7366694444444,"SAN FRANCISCO","SF WATER"
"82",82,"2012-03-13",2012,2224,"CASTRO","29TH ST",1953,"CI","12",NA,-122.433425555556,37.7439058333333,"SAN FRANCISCO","SF WATER"
"83",83,"2012-12-26",2012,251,"LAKE SHORE DRIVE","BERKSHIRE WAY",1953,"CI","8","CIRCUMFERENTIAL",-122.497305555556,37.7305555555556,"SAN FRANCISCO","SF WATER"
"84",84,NA,2012,NA,"GRAND VIEW TERRACE","GRAND VIEW AVE",1953,"CI","4",NA,-122.441191388889,37.7574288888889,"SAN FRANCISCO","SF WATER"
"85",85,"2012-01-18",2012,828,"FOERSTER","LOS PALMOS",1956,"CI","6",NA,-122.448613333333,37.7362252777778,"SAN FRANCISCO","SF WATER"
"86",86,"2012-08-15",2012,NA,"ARLINGTON","FAIRMOUNT",1956,"CI","6",NA,-122.424876388889,37.7390136111111,"SAN FRANCISCO","SF WATER"
"87",87,"2012-09-09",2012,NA,"FRANCISCO","POLK",1956,"CI","6",NA,-122.421907222222,37.8036255555556,"SAN FRANCISCO","SF WATER"
"88",88,"2012-11-14",2012,NA,"FRANCISCO","JONES",1956,"CI","6","UNK",-122.416611111111,37.80425,"SAN FRANCISCO","SF WATER"
"89",89,NA,2012,321,"MARIETTA","TERESITA",1958,"CI","8",NA,-122.443909444444,37.7392172222222,"SAN FRANCISCO","SF WATER"
"90",90,"2012-01-10",2012,1438,"FILBERT","VAN NESS",1959,"CI","4",NA,-122.423121388889,37.7996605555556,"SAN FRANCISCO","SF WATER"
"91",91,"2012-12-27",2012,1350,"UNDERWOOD AVENUE","JENNINGS STREET",1959,"CI","6",NA,-122.387138888889,37.7271666666667,"SAN FRANCISCO","SF WATER"
"92",92,"2012-01-24",2012,20,"GOLD MINE DRIVE","DIAMOND HEIGHTS BLVD",1961,"CI","4",NA,-122.437134444444,37.7438880555556,"SAN FRANCISCO","SF WATER"
"93",93,"2012-08-28",2012,NA,"SUNNYDALE","INNES",1962,"CI","12",NA,-122.409660277778,37.7101036111111,"SAN FRANCISCO","SF WATER"
"94",94,"2012-11-03",2012,10,"CIRCULAR AVENUE","BADEN STREET",1965,"CI","6","T",-122.439694444444,37.7303611111111,"SAN FRANCISCO","SF WATER"
"95",95,"2012-12-29",2012,NA,"MALTA DRIVE","STILLINGS AVENUE",1965,"CI","6","CIRCUMFERENTIAL",-122.443027777778,37.7346944444444,"SAN FRANCISCO","SF WATER"
"96",96,"2012-04-09",2012,30,"MINERVA",NA,1966,"CI","4",NA,-122.454723055556,37.7158377777778,"SAN FRANCISCO","SF WATER"
"97",97,"2012-06-20",2012,1665,"MARKET","GOUGH",1970,"DI","8",NA,-122.421771944444,37.7730594444444,"SAN FRANCISCO","SF WATER"
"98",98,NA,2012,NA,"16 MONETA CT","MONETA WAY",1975,"DI","4","U",-122.449166666667,37.7133333333333,"SAN FRANCISCO","SF WATER"
"99",99,"2012-08-26",2012,NA,"5TH ST","BERRY",1976,"DI","12",NA,-122.393335833333,37.7757422222222,"SAN FRANCISCO","SF WATER"
"100",100,"2012-11-21",2012,6,"BYRON COURT","LOWELL STREET",1977,"DI","4","T",-122.443666666667,37.7097222222222,"SAN FRANCISCO","SF WATER"
"101",101,"2012-04-25",2012,1090,"POINT LOBOS","GREAT HIGHWAY",1988,"DI","8",NA,-122.513215,37.7779538888889,"SAN FRANCISCO","SF WATER"
"102",102,"2012-05-10",2012,737,"INNES","NEWHALL",2004,"DI","6",NA,-122.388813888889,37.7394663888889,"SAN FRANCISCO","SF WATER"
"103",103,"2012-05-07",2012,NA,"CRESCENT","LEESE",2009,"DI","8",NA,-122.422938611111,37.7352627777778,"SAN FRANCISCO","SF WATER"
"104",104,NA,2012,NA,"TREASURE ISLAND",NA,NA,"CI","18","LONGITUDINAL",-122.371433333333,37.8159222222222,"SAN FRANCISCO","SF WATER"
"105",105,NA,2012,NA,"18TH ST","MISSOURI",NA,"CI",NA,NA,-122.396656944444,37.7626133333333,"SAN FRANCISCO","SF WATER"
"106",106,"2012-03-26",2012,NA,"EMBARCADERO","POWELL",NA,"PIPE ABANDONED SOMETIME IN 2012",NA,NA,-122.412569444444,37.8088155555556,"SAN FRANCISCO","SF WATER"
"107",107,"2012-04-11",2012,NA,"EMBARCADERO","MASON",NA,"PIPE ABANDONED SOMETIME IN 2012",NA,NA,-122.414093333333,37.8089047222222,"SAN FRANCISCO","SF WATER"
"108",108,NA,2012,NA,"ELLSWORTH","JARBOE",NA,"CI",NA,NA,-122.414618888889,37.7384072222222,"SAN FRANCISCO","SF WATER"
"109",109,NA,2012,NA,"JEFFERSON","EMBARCADERO",NA,"SECTION OF PIPE ABANDONED IN 2012?",NA,NA,-122.414091111111,37.8089086111111,"SAN FRANCISCO","SF WATER"
"110",110,"2010-01-26",2010,280,"VALLEY","CHURCH",1884,"CI","4",NA,-122.427,37.7445277777778,"SAN FRANCISCO","SF WATER"
"111",111,"2010-12-15",2010,2055,"FOLSOM","ENTERPRISE",1885,"CI","8",NA,-122.415138888889,37.7643888888889,"SAN FRANCISCO","SF WATER"
"112",112,"2010-12-05",2010,2852,"OCTAVIA","FILBERT",1887,"CI","6",NA,-122.428972222222,37.7984444444444,"SAN FRANCISCO","SF WATER"
"113",113,"2010-03-18",2010,NA,"ARGUELLO","EUCLID",1890,"CI","8",NA,-122.458888888889,37.7824444444444,"SAN FRANCISCO","SF WATER"
"114",114,"2010-01-28",2010,NA,"LEIDESDORFF","SACRAMENTO",1892,"CI","8",NA,-122.402138888889,37.7938611111111,"SAN FRANCISCO","SF WATER"
"115",115,"2010-11-22",2010,135,"PARK",NA,1893,"CI","6",NA,-122.422722222222,37.7365833333333,"SAN FRANCISCO","SF WATER"
"116",116,"2010-07-09",2010,NA,"BRYANT","4TH ST",1895,"CI","12",NA,-122.397888888889,37.7795,"SAN FRANCISCO","SF WATER"
"117",117,"2010-11-10",2010,755,"EDDY","VAN NESS",1895,"CI","8",NA,-122.420083333333,37.7829444444444,"SAN FRANCISCO","SF WATER"
"118",118,NA,2010,800,"FOLSOM","4TH ST",1896,"CI","12",NA,-122.401333333333,37.7819444444444,"SAN FRANCISCO","SF WATER"
"119",119,"2010-03-31",2010,354,"20TH AVE","GEARY",1897,"CI","8",NA,-122.479388888889,37.7812222222222,"SAN FRANCISCO","SF WATER"
"120",120,"2010-01-28",2010,1000,"BAY ST","EMBARCADERO",1898,"CI","16",NA,-122.406444444444,37.8065555555556,"SAN FRANCISCO","SF WATER"
"121",121,"2010-01-21",2010,2525,"LYON","GREEN",1923,"CI","2",NA,-122.446694444444,37.7942222222222,"SAN FRANCISCO","SF WATER"
"122",122,"2010-05-12",2010,NA,"CASTENADA","VENTURA",1926,"CI","8",NA,-122.462305555556,37.7509166666667,"SAN FRANCISCO","SF WATER"
"123",123,"2010-04-20",2010,50,"CAMELLIA","CASTLE MANOR",1927,"CI","6",NA,-122.431583333333,37.7296666666667,"SAN FRANCISCO","SF WATER"
"124",124,"2010-09-13",2010,258,"LAGUNA HONDA","PLAZA",1927,"CI","6",NA,-122.460555555556,37.7497777777778,"SAN FRANCISCO","SF WATER"
"125",125,NA,2010,NA,"NIAGARA","ALEMANY",1927,"CI","6",NA,-122.444055555556,37.7175277777778,"SAN FRANCISCO","SF WATER"
"126",126,"2010-01-13",2010,23,"COTTER","MISSION",1928,"CI","4",NA,-122.433444444444,37.7273888888889,"SAN FRANCISCO","SF WATER"
"127",127,"2010-01-24",2010,NA,"TOMPKINS ","GATES",1928,"CI","6",NA,-122.413861111111,37.7371388888889,"SAN FRANCISCO","SF WATER"
"128",128,"2010-02-08",2010,NA,"20TH AVE","KIRKHAM",1928,"CI","8",NA,-122.477888888889,37.7598611111111,"SAN FRANCISCO","SF WATER"
"129",129,"2010-03-25",2010,NA,"JUNIPERO SERRA","EL PLAZUELA WY",1928,"CI","8",NA,-122.471888888889,37.7268888888889,"SAN FRANCISCO","SF WATER"
"130",130,NA,2010,1105,"WISCONSIN","CONNECTICUT",1929,"CI","8",NA,-122.398527777778,37.7536111111111,"SAN FRANCISCO","SF WATER"
"131",131,"2010-07-21",2010,NA,"PALOU","GRIFFITH",1931,"CI","8",NA,-122.379833333333,37.72775,"SAN FRANCISCO","SF WATER"
"132",132,"2010-11-26",2010,925,"ROCKDALE","DEL SUR",1931,"CI","8",NA,-122.454666666667,37.7409444444444,"SAN FRANCISCO","SF WATER"
"133",133,"2010-08-25",2010,NA,"15TH AVE","ULLOA",1932,"CI","6",NA,-122.471138888889,37.7414444444444,"SAN FRANCISCO","SF WATER"
"134",134,"2010-01-25",2010,1514,"ALEMANY","COTTER",1933,"CI","8",NA,-122.435277777778,37.728,"SAN FRANCISCO","SF WATER"
"135",135,"2010-05-16",2010,NA,"BRUNSWICK","WHITTER",1933,"CI","12",NA,-122.447194444444,37.7092777777778,"SAN FRANCISCO","SF WATER"
"136",136,"2010-05-21",2010,NA,"BRUNSWICK","LOWELL",1933,"CI","12",NA,-122.446083333333,37.7096388888889,"SAN FRANCISCO","SF WATER"
"137",137,"2010-12-30",2010,138,"MADRID","PERU",1934,"CI","6",NA,-122.428555555556,37.7271666666667,"SAN FRANCISCO","SF WATER"
"138",138,NA,2010,4061,"19TH AVE","MONTECELLO",1934,"CI","6",NA,-122.470666666667,37.7154444444444,"SAN FRANCISCO","SF WATER"
"139",139,"2010-01-20",2010,27,"SATURN","LOWER TER.",1935,"CI","6",NA,-122.441444444444,37.76275,"SAN FRANCISCO","SF WATER"
"140",140,"2010-01-23",2010,559,"LISBON","RUSSIA",1935,"CI","6",NA,-122.435444444444,37.7195,"SAN FRANCISCO","SF WATER"
"141",141,"2010-01-26",2010,571,"JOOST","FORESTER",1935,"CI","12",NA,-122.448194444444,37.7323055555556,"SAN FRANCISCO","SF WATER"
"142",142,"2010-12-07",2010,NA,"ROSSI","ANZA",1935,"CI","6",NA,-122.456361111111,37.7791388888889,"SAN FRANCISCO","SF WATER"
"143",143,"2010-12-29",2010,NA,"MISSISSIPPI","22ND ST",1935,"CI","6",NA,-122.394166666667,37.7577222222222,"SAN FRANCISCO","SF WATER"
"144",144,NA,2010,NA,"28TH ST","CASTRO",1935,"CI","6",NA,-122.432222222222,37.745,"SAN FRANCISCO","SF WATER"
"145",145,NA,2010,NA,"CAPITOL","SADOWA",1935,"CI","16",NA,-122.458944444444,37.71225,"SAN FRANCISCO","SF WATER"
"146",146,NA,2010,558,"JOOST",NA,1935,"CI","12",NA,-122.447944444444,37.7323055555556,"SAN FRANCISCO","SF WATER"
"147",147,"2010-03-18",2010,NA,"22ND AVE","EUCALYPTUS",1936,"CI","4",NA,-122.476972222222,37.732,"SAN FRANCISCO","SF WATER"
"148",148,"2010-03-22",2010,NA,"EUCALYPTUS","22ND AVE",1936,"CI","4",NA,-122.477166666667,37.7311666666667,"SAN FRANCISCO","SF WATER"
"149",149,"2010-05-19",2010,45,"MARGARET","LAKEVIEW",1936,"CI","6",NA,-122.451861111111,37.7182777777778,"SAN FRANCISCO","SF WATER"
"150",150,"2010-06-20",2010,NA,"CHURCH","24TH ST",1936,"CI","12",NA,-122.427444444444,37.7516388888889,"SAN FRANCISCO","SF WATER"
"151",151,"2010-06-24",2010,231,"MOULTRIE","POWHATTAN",1936,"CI","6",NA,-122.415694444444,37.7411666666667,"SAN FRANCISCO","SF WATER"
"152",152,"2010-06-24",2010,39,"WOOL","EUGEINA",1936,"CI","6",NA,-122.416305555556,37.7413055555556,"SAN FRANCISCO","SF WATER"
"153",153,"2010-11-25",2010,330,"ANDOVER","ELLERT",1936,"CI","6",NA,-122.416583333333,37.7383333333333,"SAN FRANCISCO","SF WATER"
"154",154,"2010-12-03",2010,300,"MORAGA","9TH AVE",1936,"CI","6",NA,-122.465722222222,37.7566388888889,"SAN FRANCISCO","SF WATER"
"155",155,"2010-12-27",2010,659,"ELLSWORTH","CRESCENT",1936,"CI","6",NA,-122.414861111111,37.7351388888889,"SAN FRANCISCO","SF WATER"
"156",156,NA,2010,NA,"22ND AVE","EUCALYPTUS",1936,"CI","4",NA,-122.477444444444,37.73175,"SAN FRANCISCO","SF WATER"
"157",157,"2010-10-27",2010,55,"BEMIS","MIGUEL",1937,"CI","6",NA,-122.429472222222,37.7378055555556,"SAN FRANCISCO","SF WATER"
"158",158,"2010-02-23",2010,653,"BOWDOIN",NA,1939,"CI","6",NA,-122.411194444444,37.7275833333333,"SAN FRANCISCO","SF WATER"
"159",159,"2010-02-02",2010,NA,"JEFFERSON","LEAVENWORTH",1944,"CI","8",NA,-122.419333333333,37.8061388888889,"SAN FRANCISCO","SF WATER"
"160",160,NA,2010,NA,"EMBARCADERO","POWELL",1946,"CI","8",NA,-122.414361111111,37.8089166666667,"SAN FRANCISCO","SF WATER"
"161",161,"2010-02-07",2010,50,"PHELAN","OCEAN",1948,"CI","12",NA,-122.452333333333,37.7244166666667,"SAN FRANCISCO","SF WATER"
"162",162,"2010-01-12",2010,231,"LOOMIS","WATERLOO",1949,"CI","12",NA,-122.405305555556,37.7405833333333,"SAN FRANCISCO","SF WATER"
"163",163,"2010-01-21",2010,442,"ORIZABA","MONTANA",1950,"CI","8",NA,-122.462611111111,37.7168055555556,"SAN FRANCISCO","SF WATER"
"164",164,"2010-11-27",2010,84,"ROBINSON","LAPHAM",1950,"CI","6",NA,-122.429333333333,37.7086944444444,"SAN FRANCISCO","SF WATER"
"165",165,"2010-01-30",2010,41,"GREENVIEW","DELLBROOK",1956,"CI","4",NA,-122.451777777778,37.7530833333333,"SAN FRANCISCO","SF WATER"
"166",166,"2010-12-26",2010,30,"WINDING ST","ROLPH",1958,"CI","6",NA,-122.432194444444,37.7110277777778,"SAN FRANCISCO","SF WATER"
"167",167,"2010-01-26",2010,325,"LOS PALMOS","STANFORD HEIGHTS AVE",1959,"CI","6",NA,-122.450611111111,37.73575,"SAN FRANCISCO","SF WATER"
"168",168,"2010-02-01",2010,NA,"DIAMOND HEIGHTS","ADDISON",1961,"CI","8",NA,-122.435611111111,37.7400555555556,"SAN FRANCISCO","SF WATER"
"169",169,"2010-03-03",2010,5104,"DIAMOND HEIGHTS","DUNCAN",1961,"CI","8",NA,-122.442416666667,37.74675,"SAN FRANCISCO","SF WATER"
"170",170,"2010-03-08",2010,333,"ADISON","FARNUM",1961,"CI","8",NA,-122.434722222222,37.7400833333333,"SAN FRANCISCO","SF WATER"
"171",171,"2010-03-11",2010,200,"EVERSON","DIGBY",1961,"CI","8",NA,-122.43275,37.7389166666667,"SAN FRANCISCO","SF WATER"
"172",172,"2010-10-23",2010,60,"QUARTZ","TURQUOISE",1961,"CI","6",NA,-122.446,37.7456388888889,"SAN FRANCISCO","SF WATER"
"173",173,"2010-11-25",2010,249,"TOPAZ","COLLEEN",1961,"CI","8",NA,-122.438166666667,37.7400555555556,"SAN FRANCISCO","SF WATER"
"174",174,NA,2010,NA,"CORBETT AVE","ROMAIN",1962,"LINED","24",NA,-122.442972222222,37.7554722222222,"SAN FRANCISCO","SF WATER"
"175",175,"2010-11-30",2010,NA,"UNDERWOOD","INGALLS",1963,"CI","8",NA,-122.38625,37.7265555555556,"SAN FRANCISCO","SF WATER"
"176",176,NA,2010,NA,"UNION","LARKIN",1965,"CI","4",NA,-122.420111111111,37.7991944444444,"SAN FRANCISCO","SF WATER"
"177",177,"2010-01-30",2010,NA,"DIVISADERO","JACKSON",1967,"CI","6",NA,-122.441222222222,37.79225,"SAN FRANCISCO","SF WATER"
"178",178,"2010-02-16",2010,NA,"MONTEREY","ST. ELMO",1969,"DI","8",NA,-122.46075,37.7303611111111,"SAN FRANCISCO","SF WATER"
"179",179,"2010-07-26",2010,NA,"GALLAGHER","CLEMENTINA",1971,"DI","8",NA,-122.403055555556,37.78175,"SAN FRANCISCO","SF WATER"
"180",180,"2010-01-23",2010,121,"SANTA MARINA","PROSPECT",1996,"CI","6",NA,-122.420666666667,37.7396944444444,"SAN FRANCISCO","SF WATER"
"181",181,"2010-09-15",2010,55,"SANTA MARINA ST","GLADYS",1996,"DI","6",NA,-122.421916666667,37.7401944444444,"SAN FRANCISCO","SF WATER"
"182",182,"2010-03-15",2010,2801,"TAYLOR","JEFFERSON",NA,"REPLACED 2010",NA,NA,-122.415805555556,37.8084444444444,"SAN FRANCISCO","SF WATER"
"183",183,"2010-09-29",2010,NA,"VALLEJO","WEBSTER",NA,"REPLACED IN 2010 BY 8"" DI",NA,NA,-122.433444444444,37.7954722222222,"SAN FRANCISCO","SF WATER"
"184",184,NA,2010,NA,"BROADWAY","DIVISADERO",NA,NA,NA,NA,-122.441944444444,37.7933333333333,"SAN FRANCISCO","SF WATER"
"185",185,"2014-05-08",2014,NA,"BUCHANAN ST","BUSH ST",1874,"CI","8",NA,-122.4301598,37.7874628,"SAN FRANCISCO","SF WATER"
"186",186,"2014-05-12",2014,NA,"BUCHANAN ST","BUSH ST",1874,"CI","8","LONGITUDINAL",-122.4301598,37.7874628,"SAN FRANCISCO","SF WATER"
"187",187,"2014-04-05",2014,NA,"GEARY","WEBSTER",1876,"CI","8","CIRCUMFERENTIAL",-122.4311126,37.7846656,"SAN FRANCISCO","SF WATER"
"188",188,"2014-04-05",2014,716,"WALLER","SCOTT",1884,"CI","6","CIRCUMFERENTIAL",-122.4351804,37.7705559,"SAN FRANCISCO","SF WATER"
"189",189,"2014-03-04",2014,NA,"TENNESSEE ","22ND",1891,"CI","6","LONGITUDINAL",-122.3892485,37.7578902,"SAN FRANCISCO","SF WATER"
"190",190,"2014-08-29",2014,948,"NOE ST","22ND ST",1891,"CI","6",NA,-122.4321676,37.7546339,"SAN FRANCISCO","SF WATER"
"191",191,"2014-06-23",2014,NA,"20TH ","CASTRO",1893,"CI","6","LONGITUDINAL",-122.4346845,37.7576918,"SAN FRANCISCO","SF WATER"
"192",192,NA,2014,NA,"23RD","RHODE ISLAND",1893,"CI","8","CIRCUMFERENTIAL",-122.401598,37.7545716,"SAN FRANCISCO","SF WATER"
"193",193,"2014-08-27",2014,NA,"CLAY ST","LAUREL ST",1897,"CI","8",NA,-122.4504825,37.7886452,"SAN FRANCISCO","SF WATER"
"194",194,"2014-06-14",2014,NA,"BAKER","FILBERT",1899,"CI","8","LONGITUDINAL",-122.4455886,37.7967669,"SAN FRANCISCO","SF WATER"
"195",195,"2014-01-24",2014,NA,"POWELL","GREENWICH",1903,"CI","8","HOLE DUE TO CORROSION",-122.4112355,37.8021028,"SAN FRANCISCO","SF WATER"
"196",196,"2014-01-04",2014,NA,"ANNAPOLIS","GOLDEN GATE",1904,"CI","8","CIRCUMFERENTIAL",-122.4478057,37.7775536,"SAN FRANCISCO","SF WATER"
"197",197,"2014-05-14",2014,NA,"23RD ST","ILLINOIS ST",1910,"CI","8","CIRCUMFERENTIAL AND LONGITUDINAL",-122.3870736,37.7554455,"SAN FRANCISCO","SF WATER"
"198",198,"2014-03-13",2014,NA,"STOCKTON","SUTTER",1914,"CI","4","LONGITUDINAL",-122.4070025,37.7894504,"SAN FRANCISCO","SF WATER"
"199",199,NA,2014,801,"WISCONSIN","22ND",1926,"CI","2","HOLE DUE TO CORROSION",-122.3989281,37.7573037,"SAN FRANCISCO","SF WATER"
"200",200,"2014-08-26",2014,NA,"28TH ST","DIAMOND ST",1927,"CI","6",NA,-122.4356727,37.7447497,"SAN FRANCISCO","SF WATER"
"201",201,NA,2014,NA,"TERESITA","GAVIOTA",1927,"CI","6","CIRCUMFERENTIAL",-122.4478405,37.7398607,"SAN FRANCISCO","SF WATER"
"202",202,NA,2014,NA,"TERESITA","GAVIOTA",1927,"CI","6","FIX TO ABOVE",-122.4478405,37.7398607,"SAN FRANCISCO","SF WATER"
"203",203,"2014-01-06",2014,454,"JOOST","DETROIT",1929,"CI","8","LONGITUDINAL",-122.4443,37.7323465,"SAN FRANCISCO","SF WATER"
"204",204,"2014-01-06",2014,530,"JOOST","EDNA",1929,"CI","8","CIRCUMFERENTIAL",-122.4473115,37.732337,"SAN FRANCISCO","SF WATER"
"205",205,"2014-03-16",2014,500,"JOOST","FOERESTER",1929,"CI","8","LONGITUDINAL",-122.4488666,37.7323274,"SAN FRANCISCO","SF WATER"
"206",206,"2014-06-24",2014,364,"JOOST","CONGO",1929,"CI","8","LONGITUDINAL",-122.4420302,37.7323629,"SAN FRANCISCO","SF WATER"
"207",207,"2014-02-25",2014,NA,"LAIDLEY","MATEO",1930,"CI","6","CIRCUMFERENTIAL",-122.4295761,37.7369282,"SAN FRANCISCO","SF WATER"
"208",208,"2014-02-12",2014,NA,"33RD","KIRKHAM",1931,"CI","8","LONGITUDINAL",-122.4918653,37.7591742,"SAN FRANCISCO","SF WATER"
"209",209,"2014-05-17",2014,NA,"BEACH ST","BUCHANAN ST",1931,"CI","6","CIRCUMFERENTIAL ",-122.4337225,37.8049483,"SAN FRANCISCO","SF WATER"
"210",210,"2014-08-06",2014,1670,"32ND AVE","MORAGA",1931,"CI","6","LONGITUDINAL/CIRCUMFERENTIAL",-122.490534,37.755493,"SAN FRANCISCO","SF WATER"
"211",211,"2014-09-30",2014,NA,"HAMILTON","BACON",1931,"CI","4","LONGITUDINAL",-122.4095366,37.7260944,"SAN FRANCISCO","SF WATER"
"212",212,NA,2014,NA,"ALEMANY","SENECA",1931,"CI","6","CIRCUMFERENTIAL",-122.4413867,37.7186853,"SAN FRANCISCO","SF WATER"
"213",213,"2014-01-07",2014,NA,"20TH","PENNSYLVANIA",1933,"CI","6","CIRCUMFERENTIAL",-122.3933678,37.7602112,"SAN FRANCISCO","SF WATER"
"214",214,"2014-02-20",2014,NA,"15TH","ULLOA",1933,"CI","6","LONGITUDINAL",-122.471239,37.7413767,"SAN FRANCISCO","SF WATER"
"215",215,"2014-04-11",2014,786,"FOERSTER","LOS PALMOS",1933,"CI","6",NA,-122.448876,37.7359079,"SAN FRANCISCO","SF WATER"
"216",216,"2014-04-09",2014,NA,"OLMSTEAD","BRUSSELS ",1934,"CI","6",NA,-122.4035737,37.7223292,"SAN FRANCISCO","SF WATER"
"217",217,"2014-06-30",2014,NA,"16TH","SAN BRUNO",1934,"CI","6","CIRCUMFERENTIAL",-122.4055839,37.765901,"SAN FRANCISCO","SF WATER"
"218",218,"2014-08-24",2014,NA,"DELTA ST","TEDDY AVE",1934,"CI","8","HOLE ON SIDE",-122.4086051,37.7151658,"SAN FRANCISCO","SF WATER"
"219",219,NA,2014,320,"SAN BRUNO AVE","16TH",1934,"CI","6","CIRCUMFERENTIAL",-122.4055839,37.765901,"SAN FRANCISCO","SF WATER"
"220",220,"2014-01-03",2014,NA,"47TH","MORAGA",1935,"CI","6",NA,-122.506615,37.754791,"SAN FRANCISCO","SF WATER"
"221",221,"2014-07-16",2014,NA,"CARR ST","PAUL AVE",1935,"CI","6","CIRCUMFERENTIAL",-122.3966358,37.7226339,"SAN FRANCISCO","SF WATER"
"222",222,"2014-08-08",2014,47,"CARR ST","PAUL AVE",1935,"CI","6","CIRCUMFERENTIAL",-122.3966358,37.7226339,"SAN FRANCISCO","SF WATER"
"223",223,NA,2014,NA,"YUKON","EAGLE",1935,"CI","6","CIRCUMFERENTIAL",-122.4422213,37.758122,"SAN FRANCISCO","SF WATER"
"224",224,NA,2014,315,"RICHLAND","ANDOVER",1935,"CI","6","CIRCUMFERENTIAL",-122.41676,37.735605,"SAN FRANCISCO","SF WATER"
"225",225,"2014-01-04",2014,NA,"SHAFTER","INGALLS",1936,"CI","6",NA,-122.385119,37.72786,"SAN FRANCISCO","SF WATER"
"226",226,"2014-01-24",2014,111,"FLOOD","CONGO",1936,"CI","8","LONGITUDINAL",-122.4420142,37.7299173,"SAN FRANCISCO","SF WATER"
"227",227,"2014-09-27",2014,1664,"ALEMANY","NORTON",1936,"CI","8","CIRCUMFERENTIAL",-122.4366768,37.7254421,"SAN FRANCISCO","SF WATER"
"228",228,"2014-01-23",2014,NA,"TAYLOR ","NORTH POINT",1937,"CI","6","CIRCUMFERENTIAL",-122.4154651,37.8063673,"SAN FRANCISCO","SF WATER"
"229",229,"2014-07-14",2014,NA,"LAIDLEY ST","ROANOKE ST",1937,"CI","6","LONGITUDINAL",-122.4308506,37.7360928,"SAN FRANCISCO","SF WATER"
"230",230,"2014-08-08",2014,NA,"LAIDLEY ST","ROANOKE ST",1937,"CI","6","LONGITUDINAL",-122.4308506,37.7360928,"SAN FRANCISCO","SF WATER"
"231",231,"2014-02-17",2014,NA,"CONNECTICUT","CESAR CHAVEZ",1940,"CI","6","LONGITUDINAL",-122.3962723,37.749751,"SAN FRANCISCO","SF WATER"
"232",232,"2014-02-24",2014,1221,"CONNECTICUT","26TH ",1940,"CI","6","CIRCUMFERENTIAL",-122.3964078,37.7511811,"SAN FRANCISCO","SF WATER"
"233",233,"2014-06-30",2014,24,"GORHAM","CAYUGA",1940,"CI","6","CIRCUMFERENTIAL",-122.4345369,37.7305859,"SAN FRANCISCO","SF WATER"
"234",234,"2014-02-10",2014,NA,"3RD","23RD",1941,"CI","8","CIRCUMFERENTIAL",-122.3879048,37.7553986,"SAN FRANCISCO","SF WATER"
"235",235,"2014-09-23",2014,NA,"GLADSTONE","STONEYBROOK",1941,"CI","6","LONGITUDINAL",-122.4225036,37.7292678,"SAN FRANCISCO","SF WATER"
"236",236,"2014-02-20",2014,452,"28TH","NOE",1945,"CI","6","LONGITUDINAL",-122.432471,37.745182,"SAN FRANCISCO","SF WATER"
"237",237,"2014-06-15",2014,2199,"JACKSON","BUCHANNAN",1947,"S","24","HOLE",-122.4307438,37.7902505,"SAN FRANCISCO","SF WATER"
"238",238,NA,2014,1,"WOOD","LUPINE",1947,"CI","6","CIRCUMFERENTIAL",-122.4479711,37.7840205,"SAN FRANCISCO","SF WATER"
"239",239,NA,2014,NA,"DWIGHT","COLBY",1950,"CI","8",NA,-122.4110102,37.7217232,"SAN FRANCISCO","SF WATER"
"240",240,"2014-07-19",2014,NA,"ARELIOUS WALKER DR","CARROLL AVE",1959,"CI","8",NA,-122.3840832,37.719673,"SAN FRANCISCO","SF WATER"
"241",241,"2014-05-10",2014,NA,"KANSAS ST","20TH ST",1960,"CI","4","LONGITUDINAL",-122.4030612,37.7596226,"SAN FRANCISCO","SF WATER"
"242",242,"2014-02-05",2014,NA,"ARBOR","SWISS",1961,"CI","6","CIRCUMFERENTIAL",-122.4382043,37.737726,"SAN FRANCISCO","SF WATER"
"243",243,"2014-03-11",2014,702,"WALLER","SCOTT",1961,"CI","6","LONGITUDINAL",-122.4351804,37.7705559,"SAN FRANCISCO","SF WATER"
"244",244,"2014-04-18",2014,NA,"DIAMOND HTS","ADDISON ST",1961,"CI","8","LONGITUDINAL",-122.4332178,37.7385899,"SAN FRANCISCO","SF WATER"
"245",245,"2014-07-23",2014,90,"PARKRIDGE DR","BURNETT ST",1963,"CI","8","CIRCUMFERENTIAL",-122.445779,37.750504,"SAN FRANCISCO","SF WATER"
"246",246,"2014-08-08",2014,90,"PARKRIDGE DR","VISTA LN",1963,"CI","8","LONGITUDINAL/CIRCUMFERENTIAL",-122.4457083,37.7518922,"SAN FRANCISCO","SF WATER"
"247",247,"2014-03-27",2014,145,"GARCIA","VASQUEZ",1965,"CI","4","CIRCUMFERENTIAL",-122.4610413,37.7438958,"SAN FRANCISCO","SF WATER"
"248",248,"2014-08-29",2014,2400,"DIVISADERO ST","JACKSON ST",1967,"CI","6",NA,-122.4411477,37.7916389,"SAN FRANCISCO","SF WATER"
"249",249,"2014-03-23",2014,1,"WATSON","RUTH",1976,"DI","2","CIRCUMFERENTIAL",-122.4371483,37.7234897,"SAN FRANCISCO","SF WATER"
"250",250,"2014-07-23",2014,NA," RANKIN ST","JERROLD AVE",1978,"DI","8",NA,-122.3950513,37.741937,"SAN FRANCISCO","SF WATER"
"251",251,"2014-02-28",2014,NA,"3RD","PALOU",2004,"DI","8",NA,-122.3910462,37.7340713,"SAN FRANCISCO","SF WATER"
"252",252,"2013-11-23",2013,NA,"JACKSON STREET","BATTERY STREET",1863,"CI","8",NA,-122.4006978,37.7967882,"SAN FRANCISCO","SF WATER"
"253",253,"2013-08-04",2013,NA,"LEAVENWORTH STREET","POST STREET",1867,"CI","6","LONGITUDINAL",-122.4149854,37.7874653,"SAN FRANCISCO","SF WATER"
"254",254,"2013-08-09",2013,NA,"BUCHANAN STREET","JACKSON STREET",1883,"CI","6",NA,-122.4312616,37.7928815,"SAN FRANCISCO","SF WATER"
"255",255,"2013-09-02",2013,116,"BRODERICK STREET","HAIGHT STREET",1886,"CI","6","LONGITUDINAL",-122.4386819,37.7716801,"SAN FRANCISCO","SF WATER"
"256",256,"2013-11-09",2013,980,"KANSAS STREET","22ND STREET",1889,"CI","2","HOLE DUE TO CORROSION",-122.4028128,37.757075,"SAN FRANCISCO","SF WATER"
"257",257,"2013-09-03",2013,NA,"17TH STREET","EUREKA STREET",1891,"CI","8","LEAK AT 45 DEGREE BEND",-122.4383618,37.7622975,"SAN FRANCISCO","SF WATER"
"258",258,"2013-11-26",2013,NA,"NOE STREET","HILL STREET",1891,"CI","6","CIRCUMFERENTIAL ",-122.432246,37.7554299,"SAN FRANCISCO","SF WATER"
"259",259,"2013-05-01",2013,NA,"23RD STREET","RHODE ISLAND STREET",1893,"CI","8","CIRCUMFERENTIAL",-122.401598,37.7545716,"SAN FRANCISCO","SF WATER"
"260",260,"2013-06-19",2013,NA,"FILLMORE STREET","VALLEJO STREET",1893,"CI","6","LONGITUDINAL/SPLIT",-122.4351266,37.7952306,"SAN FRANCISCO","SF WATER"
"261",261,"2013-12-17",2013,NA,"SPRUCE","SACRAMENTO",1893,"CI","8","LONGITUDINAL",-122.4535951,37.787347,"SAN FRANCISCO","SF WATER"
"262",262,"2013-09-24",2013,722,"STEINER STREET","GROVE STREET",1896,"CI","8",NA,-122.4330358,37.7765673,"SAN FRANCISCO","SF WATER"
"263",263,"2013-08-13",2013,NA,"17TH STREET","CORBIN PLACE",1898,"CI","6","LONGITUDINAL",-122.4429116,37.762022,"SAN FRANCISCO","SF WATER"
"264",264,"2013-10-09",2013,NA,"FULTON STREET","LOYOLA TERRACE",1911,"CI","6",NA,-122.4488561,37.7755058,"SAN FRANCISCO","SF WATER"
"265",265,"2013-11-21",2013,399,"HOLLOWAY AVENUE","MONTICELLO STREET",1912,"CI","4","HOLE DUE TO CORROSION",-122.4707867,37.7216361,"SAN FRANCISCO","SF WATER"
"266",266,"2013-07-04",2013,252,"YERBA BUENA AVENUE","BAXTER AL.",1916,"CI","8","LONGITUDINAL",-122.4194155,37.7749295,"SAN FRANCISCO","SF WATER"
"267",267,"2013-01-17",2013,510,"EL CAMINO DEL MAR","28TH AVENUE",1920,"CI","6",NA,-122.4884233,37.7876393,"SAN FRANCISCO","SF WATER"
"268",268,"2013-08-06",2013,4136,"FOLSOM STREET","CRESCENT AVENUE",1923,"CI","6",NA,-122.4137033,37.7347317,"SAN FRANCISCO","SF WATER"
"269",269,"2013-03-29",2013,810,"37TH AVENUE","CABRILLO STREET",1924,"CI","4",NA,-122.497183,37.7738466,"SAN FRANCISCO","SF WATER"
"270",270,"2013-11-24",2013,NA,"CORDOVA STREET","CANYON DRIVE",1925,"CI","6",NA,-122.4330299,37.7075726,"SAN FRANCISCO","SF WATER"
"271",271,"2013-01-17",2013,46,"MANOR DRIVE","KENWOOD WAY",1926,"CI","6",NA,-122.4640704,37.7282509,"SAN FRANCISCO","SF WATER"
"272",272,"2013-08-10",2013,150,"GRAND VIEW AVENUE","21ST STREET",1927,"CI","2","PITTING DUE TO CORROSION",-122.440367,37.7553414,"SAN FRANCISCO","SF WATER"
"273",273,"2013-09-23",2013,NA,"MOUNT VERNON AVENUE","SAN MIGUEL STREET",1927,"CI","2",NA,-122.4491735,37.7186935,"SAN FRANCISCO","SF WATER"
"274",274,"2013-01-13",2013,NA,"31ST AVENUE","VICENTE STREET",1928,"CI","6",NA,-122.488287,37.738758,"SAN FRANCISCO","SF WATER"
"275",275,"2013-06-26",2013,NA,"SAN BRUNO AVENUE","HARKNESS AVENUE",1928,"CI","6",NA,-122.400131,37.717906,"SAN FRANCISCO","SF WATER"
"276",276,"2013-07-13",2013,228,"HOLLADAY AVENUE","YORK STREET",1928,"CI","6","LONGITUDINAL",-122.4052792,37.7464994,"SAN FRANCISCO","SF WATER"
"277",277,"2013-12-08",2013,NA,"DIAMOND","ARBOR",1928,"CI","6","CIRCUMFERENTIAL",-122.4346376,37.73829,"SAN FRANCISCO","SF WATER"
"278",278,"2013-01-01",2013,674,"29TH STREET","DIAMOND STREET",1929,"CI","8",NA,-122.4355681,37.7431753,"SAN FRANCISCO","SF WATER"
"279",279,"2013-03-06",2013,851,"38TH AVENUE","CABRILLO STREET",1929,"CI","8","CIRCUMFERENTIAL",-122.4982536,37.7738028,"SAN FRANCISCO","SF WATER"
"280",280,"2013-05-15",2013,NA,"LAIDLEY STREET","FAIRMOUNT STREET",1929,"CI","8","LONGITUDINAL",-122.4281387,37.738662,"SAN FRANCISCO","SF WATER"
"281",281,"2013-01-12",2013,NA,"HOLLADAY AVENUE","COSTA STREET",1930,"CI","6","CIRCUMFERENTIAL",-122.4057728,37.7445279,"SAN FRANCISCO","SF WATER"
"282",282,"2013-01-22",2013,NA,"FILLMORE STREET","MARINA BOULEVARD",1931,"CI","8","LONGITUDINAL",-122.4374154,37.8064284,"SAN FRANCISCO","SF WATER"
"283",283,"2013-04-08",2013,NA,"ORTEGA STREET","20TH AVENUE",1931,"CI","8","CIRCUMFERENTIAL",-122.477425,37.7523283,"SAN FRANCISCO","SF WATER"
"284",284,"2013-10-13",2013,3700,"WEBSTER STREET","BEACH STREET",1931,"CI","8",NA,-122.4353917,37.80477,"SAN FRANCISCO","SF WATER"
"285",285,"2013-01-06",2013,NA,"LEAVENWORTH STREET","MCALLISTER STREET",1932,"CI","8",NA,-122.4136944,37.7809372,"SAN FRANCISCO","SF WATER"
"286",286,NA,2013,NA,"UNIVERSITY","FELTON",1932,"CI","6","CIRCUMFERENTIAL",-122.4144668,37.727468,"SAN FRANCISCO","SF WATER"
"287",287,"2013-01-03",2013,1800,"ALEMANY BOULEVARD","ONONDAGA AVENUE",1933,"CI","8","CIRCUMFERENTIAL",-122.4386088,37.7216374,"SAN FRANCISCO","SF WATER"
"288",288,"2013-01-04",2013,100,"BELGRAVE AVENUE","SHRADER STREET",1933,"CI","6",NA,-122.4493825,37.7596038,"SAN FRANCISCO","SF WATER"
"289",289,"2013-01-13",2013,1970,"ALEMANY BOULEVARD","ONONDAGA AVENUE",1933,"CI","8",NA,-122.4386088,37.7216374,"SAN FRANCISCO","SF WATER"
"290",290,"2013-03-21",2013,249,"POPE STREET","MORSE STREET",1933,"CI","6","CIRCUMFERENTIAL ",-122.440604,37.712646,"SAN FRANCISCO","SF WATER"
"291",291,"2013-07-29",2013,NA,"KANSAS ","16TH STREET",1933,"CI","8",NA,-122.4036606,37.7660274,"SAN FRANCISCO","SF WATER"
"292",292,"2013-08-27",2013,NA,"JARBOE AVENUE","ELLSWORTH STREET",1933,"CI","6","LONGITUDINAL",-122.4146123,37.7383882,"SAN FRANCISCO","SF WATER"
"293",293,"2013-10-17",2013,NA,"POWHATTAN AVENUE","ANDERSON STREET",1933,"CI","6",NA,-122.4150829,37.7415909,"SAN FRANCISCO","SF WATER"
"294",294,"2013-11-03",2013,1921,"ALEMANY BOULEVARD","ONONDAGA AVENUE",1933,"CI","8",NA,-122.4386088,37.7216374,"SAN FRANCISCO","SF WATER"
"295",295,"2013-12-20",2013,2,"GARFIELD","ORIZABA",1933,"CI","8","CIRCUMFERENTIAL",-122.462663,37.7200039,"SAN FRANCISCO","SF WATER"
"296",296,"2013-01-12",2013,NA,"DANVERS STREET","CASELLI AVENUE",1934,"CI","6","LONGITUDINAL",-122.4430289,37.7595702,"SAN FRANCISCO","SF WATER"
"297",297,"2013-06-03",2013,NA,"GRAND VIEW AVENUE","ALVARADO STREET",1934,"CI","6","LONGITUDINAL/SPLIT",-122.4419508,37.7532549,"SAN FRANCISCO","SF WATER"
"298",298,"2013-07-05",2013,1077,"BRUSSELS STREET","WARD STREET",1934,"CI","6","LONGITUDINAL",-122.4020955,37.7187171,"SAN FRANCISCO","SF WATER"
"299",299,"2013-01-12",2013,NA,"BEAUMONT AVENUE","TURK STREET",1935,"CI","6","CIRCUMFERENTIAL",-122.4543353,37.7777109,"SAN FRANCISCO","SF WATER"
"300",300,"2013-01-13",2013,261,"HOLYOKE STREET","FELTON STREET",1935,"CI","6","CIRCUMFERENTIAL",-122.4095351,37.7287566,"SAN FRANCISCO","SF WATER"
"301",301,"2013-01-13",2013,NA,"HAMILTON STREET","FELTON STREET",1935,"CI","6","CIRCUMFERENTIAL",-122.4105214,37.7284993,"SAN FRANCISCO","SF WATER"
"302",302,"2013-02-06",2013,NA,"GUERRERO","17TH STREET",1935,"ST","30","FAILURE AT JOINTS (TIE ROD JUNCTION)",-122.4239576,37.7631745,"SAN FRANCISCO","SF WATER"
"303",303,"2013-02-20",2013,817,"FILBERT STREET","MASON STREET",1935,"CI","12","CIRCUMFERENTIAL AND LONGITUDINAL ",-122.4127136,37.8009903,"SAN FRANCISCO","SF WATER"
"304",304,"2013-03-07",2013,NA,"EVANS AVENUE","RANKIN AVENUE",1935,"CI","12","CIRCUMFERENTIAL",-122.3921988,37.7451131,"SAN FRANCISCO","SF WATER"
"305",305,"2013-03-07",2013,NA,"22ND STREET","MISSISSIPPI STREET",1935,"CI","2",NA,-122.394108,37.757593,"SAN FRANCISCO","SF WATER"
"306",306,"2013-04-15",2013,NA,"MONTICELLO STREET","19TH AVENUE",1935,"CI","12","LONGITUDINAL",-122.4708186,37.7153245,"SAN FRANCISCO","SF WATER"
"307",307,"2013-06-05",2013,NA,"30TH AVENUE","ANZA STREET",1935,"CI","6","CIRCUMFERENTIAL",-122.4899515,37.7779225,"SAN FRANCISCO","SF WATER"
"308",308,"2013-07-27",2013,NA,"BESSIE STREET","FOLSOM STREET",1935,"CI","6","LEAK AT JOINT",-122.4135453,37.7468027,"SAN FRANCISCO","SF WATER"
"309",309,"2013-10-29",2013,484,"DIAMOND STREET","22ND STREET",1935,"CI","6","HOLE AND PITTING DUE TO CORROSION",-122.4366097,37.7543526,"SAN FRANCISCO","SF WATER"
"310",310,"2013-12-09",2013,180,"LOWER TERRACE","ROOSEVELT",1935,"CI","6","CIRCUMFERENTIAL",-122.4392914,37.766655,"SAN FRANCISCO","SF WATER"
"311",311,"2013-12-09",2013,630,"VIENNA","RUSSIA",1935,"CI","6","CIRCUMFERENTIAL",-122.4315851,37.7189212,"SAN FRANCISCO","SF WATER"
"312",312,"2013-12-16",2013,NA,"19TH","WISCONSIN",1935,"CI","6","CIRCUMFERENTIAL",-122.399303,37.761126,"SAN FRANCISCO","SF WATER"
"313",313,"2013-12-28",2013,NA,"18TH ","CONNECTICUT",1935,"CI","6",NA,-122.3975085,37.7625316,"SAN FRANCISCO","SF WATER"
"314",314,NA,2013,525,"GIRARD","WAYLAND",1935,"CI","6","CIRCUMFERENTIAL",-122.4041053,37.7261811,"SAN FRANCISCO","SF WATER"
"315",315,"2013-01-15",2013,NA,"GLADYS STREET","SANTA MARINA STREET",1936,"CI","6",NA,-122.4222624,37.7402964,"SAN FRANCISCO","SF WATER"
"316",316,"2013-01-15",2013,134,"CAYUGA AVENUE","LYELL STREET",1936,"CI","8","CIRCUMFERENTIAL",-122.4314144,37.7310041,"SAN FRANCISCO","SF WATER"
"317",317,"2013-05-10",2013,NA,"INNES AVENUE","GRIFFITH STREET",1936,"CI","8","CIRCUMFERENTIAL",-122.3757755,37.7320161,"SAN FRANCISCO","SF WATER"
"318",318,"2013-05-11",2013,1326,"SHAFTER AVENUE","INGALLS STREET",1936,"CI","6",NA,-122.385119,37.72786,"SAN FRANCISCO","SF WATER"
"319",319,"2013-07-09",2013,1346,"SHAFTER AVENUE","INGALLS STREET ",1936,"CI","6","LONGITUDINAL",-122.385119,37.72786,"SAN FRANCISCO","SF WATER"
"320",320,"2013-08-30",2013,649,"BANKS STREET","CRESCENT AVENUE",1936,"CI","6","LONGITUDINAL",-122.4130876,37.7347044,"SAN FRANCISCO","SF WATER"
"321",321,"2013-11-23",2013,230,"JUNIPERO SERRA BOULEVARD","OCEAN AVENUE",1936,"CI","6",NA,-122.4719316,37.7311432,"SAN FRANCISCO","SF WATER"
"322",322,"2013-12-12",2013,1600,"ARMSTRONG","KEITH",1936,"CI","6","CIRCUMFERENTIAL",-122.392231,37.7262178,"SAN FRANCISCO","SF WATER"
"323",323,"2013-12-13",2013,2190,"REVERE","SELBY",1936,"CI","6","CIRCUMFERENTIAL",-122.401444,37.7380707,"SAN FRANCISCO","SF WATER"
"324",324,NA,2013,NA,"THOMAS","HAWES",1936,"CI","6","CIRCUMFERENTIAL",-122.3838191,37.726171,"SAN FRANCISCO","SF WATER"
"325",325,"2013-02-21",2013,303,"GREENWICH STREET","MONTGOMERY STREET",1937,"CI","4",NA,-122.4037026,37.7973166,"SAN FRANCISCO","SF WATER"
"326",326,"2013-01-02",2013,30,"ENCLINE COURT","DEL VALE AVENUE",1938,"CI","2",NA,-122.4478264,37.74177,"SAN FRANCISCO","SF WATER"
"327",327,"2013-11-03",2013,290,"UNION STREET","MONTGOMERY STREET",1939,"CI","6","CIRCUMFERENTIAL ",-122.4044855,37.8010394,"SAN FRANCISCO","SF WATER"
"328",328,"2013-06-30",2013,93,"EDWARD STREET","ARGUELLO BLVD",1940,"CI","6","LONGITUDINAL/SPLIT",-122.4586255,37.7780036,"SAN FRANCISCO","SF WATER"
"329",329,"2013-09-10",2013,1055,"CONNECTICUT STREET","25TH STREET",1940,"CI","6",NA,-122.396513,37.7523032,"SAN FRANCISCO","SF WATER"
"330",330,"2013-09-19",2013,1000,"CONNECTICUT STREET","WISCONSIN STREET",1940,"CI","6",NA,-122.3985875,37.7537348,"SAN FRANCISCO","SF WATER"
"331",331,NA,2013,728,"JUNIPERO SERRA BOULEVARD","STONECREST DRIVE",1940,"CI","8",NA,-122.472054,37.728803,"SAN FRANCISCO","SF WATER"
"332",332,"2013-01-21",2013,9,"AZTEC STREET","COSO AVENUE",1941,"CI","4","CIRCUMFERENTIAL",-122.4165733,37.7454617,"SAN FRANCISCO","SF WATER"
"333",333,"2013-05-03",2013,NA,"3RD STREET","23RD STREET",1941,"CI","8","CIRCUMFERENTIAL",-122.3879048,37.7553986,"SAN FRANCISCO","SF WATER"
"334",334,"2013-01-02",2013,NA,"LOMBARD STREET","DIVISADERO STREET",1942,"CI","8","CIRCUMFERENTIAL",-122.4426209,37.7989652,"SAN FRANCISCO","SF WATER"
"335",335,"2013-10-04",2013,177,"MARIETTA DRIVE","REPOSA WAY",1942,"CI","6",NA,-122.4484557,37.7412231,"SAN FRANCISCO","SF WATER"
"336",336,NA,2013,8,"MIGUEL","BEACON",1942,"CI","6",NA,-122.4307202,37.7384711,"SAN FRANCISCO","SF WATER"
"337",337,"2013-10-17",2013,NA,"MELROSE AVENUE","DETROIT STREET",1944,"CI","6",NA,-122.4443193,37.7338215,"SAN FRANCISCO","SF WATER"
"338",338,"2013-01-17",2013,NA,"GRAND VIEW AVENUE","MARKET STREET",1946,"CI","6",NA,-122.4421947,37.7567183,"SAN FRANCISCO","SF WATER"
"339",339,"2013-08-19",2013,2224,"JACKSON STREET","BUCHANAN STREET",1947,"ST","24",NA,-122.4312616,37.7928815,"SAN FRANCISCO","SF WATER"
"340",340,"2013-03-28",2013,51,"MASSASOIT STREET","RUTLEDGE STREET",1949,"CI","6","CIRCUMFERENTIAL",-122.408613,37.745129,"SAN FRANCISCO","SF WATER"
"341",341,"2013-01-16",2013,851,"PERU AVENUE","BURROWS STREET",1950,"CI","6","CIRCUMFERENTIAL",-122.4228487,37.7239711,"SAN FRANCISCO","SF WATER"
"342",342,"2013-01-17",2013,NA,"UNIVERSITY STREET","DWIGHT STREET",1950,"CI","6","CIRCUMFERENTIAL",-122.4119568,37.7214856,"SAN FRANCISCO","SF WATER"
"343",343,"2013-05-24",2013,1585,"5TH AVENUE","KIRKHAM STREET",1950,"CI","6","LONGITUDINAL",-122.4617717,37.7605056,"SAN FRANCISCO","SF WATER"
"344",344,"2013-01-07",2013,681,"PERALTA AVENUE","POWHATTAN AVENUE",1951,"CI","6","CIRCUMFERENTIAL",-122.4088701,37.7412849,"SAN FRANCISCO","SF WATER"
"345",345,"2013-07-13",2013,2243,"SHAFTER AVENUE","SELBY STREET",1951,"CI","6","BLOWN CAP AT END OF MAIN",-122.3976765,37.7420868,"SAN FRANCISCO","SF WATER"
"346",346,"2013-10-23",2013,150,"GLENVIEW DRIVE","DAWNVIEW WAY",1951,"CI","8",NA,-122.4478049,37.7480974,"SAN FRANCISCO","SF WATER"
"347",347,"2013-02-27",2013,2733,"15TH AVENUE","WAWONA STREET",1952,"CI","16","LEAD JOINT FAILURE",-122.4709611,37.7376595,"SAN FRANCISCO","SF WATER"
"348",348,"2013-09-09",2013,130,"MOLIMO DRIVE","GATUN ALLEY",1952,"CI","6",NA,-122.4194155,37.7749295,"SAN FRANCISCO","SF WATER"
"349",349,"2013-12-08",2013,184,"LOCKSLEY","WARREN ",1953,"CI","6","CIRCUMFERENTIAL",-122.463208,37.7586045,"SAN FRANCISCO","SF WATER"
"350",350,"2013-05-24",2013,NA,"CHICAGO WAY ","SOUTH HILL BOULEVARD",1956,"CI","8","LEAK ON LEAD SLEEVE",-122.4314176,37.7107218,"SAN FRANCISCO","SF WATER"
"351",351,"2013-01-13",2013,2275,"MCKINNON AVENUE","BARNEVELD AVENUE",1957,"CI","8","CIRCUMFERENTIAL",-122.4032553,37.7438555,"SAN FRANCISCO","SF WATER"
"352",352,"2013-07-24",2013,NA,"VULCAN STAIRWAY","ORD STREET",1957,"CI","4","CIRCUMFERENTIAL",-122.4402785,37.7634971,"SAN FRANCISCO","SF WATER"
"353",353,"2013-12-07",2013,NA,"TERRACE","PORTOLA",1958,"CI","4","CIRCUMFERENTIAL",-122.4675334,37.7379811,"SAN FRANCISCO","SF WATER"
"354",354,"2013-01-02",2013,NA,"CHRISTOPHER DRIVE","CRESTMONT DRIVE",1959,"CI","8","CIRCUMFERENTIAL",-122.4573612,37.7557025,"SAN FRANCISCO","SF WATER"
"355",355,"2013-04-23",2013,169,"DALEWOOD WAY","LANSDALE AVENUE",1960,"CI","6",NA,-122.4595467,37.7385279,"SAN FRANCISCO","SF WATER"
"356",356,"2013-09-09",2013,3033,"CASTRO STREET","BEMIS STREET",1960,"CI","6",NA,-122.4326028,37.7358514,"SAN FRANCISCO","SF WATER"
"357",357,"2013-01-13",2013,5526,"DIAMOND HEIGHTS BOULEVARD","GOLD MINE DRIVE",1961,"CI","8","CIRCUMFERENTIAL",-122.4377343,37.7435538,"SAN FRANCISCO","SF WATER"
"358",358,"2013-05-24",2013,49,"GOLD MINE DRIVE","DIAMOND HEIGHTS BOULEVARD",1961,"CI","4","LONGITUDINAL",-122.4377343,37.7435538,"SAN FRANCISCO","SF WATER"
"359",359,"2013-11-04",2013,NA,"DIAMOND STREET","BEACON STREET",1961,"CI","8","CIRCUMFERENTIAL ",-122.4355248,37.7426071,"SAN FRANCISCO","SF WATER"
"360",360,"2013-09-02",2013,34,"CARRIZAL STREET","PARQUE DRIVE",1962,"CI","4","LONGITUDINAL",-122.4203331,37.7099106,"SAN FRANCISCO","SF WATER"
"361",361,"2013-11-05",2013,914,"HAMILTON STREET","MANSELL STREET",1962,"CI","6","CIRCUMFERENTIAL ",-122.4070421,37.7201113,"SAN FRANCISCO","SF WATER"
"362",362,"2013-11-06",2013,NA,"NIAGARA AVENUE","SAN MIGUEL STREET",1963,"CI","16","LONGITUDINAL",-122.4486814,37.7198416,"SAN FRANCISCO","SF WATER"
"363",363,"2013-03-11",2013,NA,"FAIRFAX AVENUE","NEWHALL STREET",1974,"DI","6","LONGITUDINAL",-122.3871489,37.7413063,"SAN FRANCISCO","SF WATER"
"364",364,"2013-10-10",2013,NA,"DETROIT STREET","MELROSE STREET",1980,"DI","8",NA,-122.4443193,37.7338215,"SAN FRANCISCO","SF WATER"
"365",365,"2013-11-01",2013,170,"LINDA STREET","19TH STREET",1980,"CI","2","HOLE DUE TO CORROSION",-122.4229097,37.7600078,"SAN FRANCISCO","SF WATER"
"366",366,"2013-02-25",2013,NA,"YERBA BUENA ISLAND ","FOREST ROAD",NA,"UNKNOWN","3",NA,-122.3661518,37.8094905,"SAN FRANCISCO","SF WATER"
"367",367,"2012-12-20",2012,5821,"GEARY BOULEVARD","22ND AVENUE",NA,"N/A","1","N/A",-122.4815006,37.7801854,"SAN FRANCISCO","SF WATER"
"368",368,NA,2011,NA,"LAGUNA","MC ALLISTER",1869,"CI",NA,NA,-122.4268479,37.7792661,"SAN FRANCISCO","SF WATER"
"369",369,NA,2011,NA,"SAN JOSE ","ARMY",1886,"CI",NA,NA,-122.4194155,37.7749295,"SAN FRANCISCO","SF WATER"
"370",370,NA,2011,NA,"ELIZABETH","CASTRO",1891,"CI",NA,NA,-122.4341557,37.7521053,"SAN FRANCISCO","SF WATER"
"371",371,NA,2011,NA,"27TH","DOLORES",1894,"CI","6",NA,-122.424776,37.7470374,"SAN FRANCISCO","SF WATER"
"372",372,NA,2011,NA,"CLAYTON","BELVEDERE",1895,"CI",NA,NA,-122.4194155,37.7749295,"SAN FRANCISCO","SF WATER"
"373",373,NA,2011,NA,"BEALE","MARKET",1896,"CI",NA,NA,-122.3974305,37.7924486,"SAN FRANCISCO","SF WATER"
"374",374,NA,2011,NA,"CORBET","GRAYSTONE",1896,"CI","12",NA,-122.4433036,37.7563953,"SAN FRANCISCO","SF WATER"
"375",375,NA,2011,NA,"GEARY","23RD",1896,"CI",NA,NA,-122.4825603,37.7801236,"SAN FRANCISCO","SF WATER"
"376",376,NA,2011,NA,"HENRY ADAMS","15TH",1897,"CI","8",NA,-122.4037807,37.7673323,"SAN FRANCISCO","SF WATER"
"377",377,NA,2011,NA,"BALBOA","ARGUELLO",1898,"CI","8",NA,-122.4585808,37.7772694,"SAN FRANCISCO","SF WATER"
"378",378,NA,2011,NA,"CARMEL","CARMEL",1907,"CI",NA,NA,-122.4194155,37.7749295,"SAN FRANCISCO","SF WATER"
"379",379,NA,2011,NA,"BRANNAN","9TH",1910,"CI",NA,NA,-122.4070056,37.7700842,"SAN FRANCISCO","SF WATER"
"380",380,NA,2011,NA,"MIGUEL","LAIDLEY ",1922,"CI",NA,NA,-122.4282148,37.7377185,"SAN FRANCISCO","SF WATER"
"381",381,NA,2011,NA,"BAKER","FRANCISCO",1925,"CI",NA,NA,-122.4463637,37.800509,"SAN FRANCISCO","SF WATER"
"382",382,NA,2011,NA,"KENWOOD","KEYSTONE",1926,"CI",NA,NA,-122.4629015,37.7280552,"SAN FRANCISCO","SF WATER"
"383",383,NA,2011,NA,"BOUTWELL","BAYSHORE",1927,"CI",NA,NA,-122.4056402,37.7344597,"SAN FRANCISCO","SF WATER"
"384",384,NA,2011,NA,"HAZELWOOD","BRENTWOOD",1927,"CI",NA,NA,-122.456516,37.7342669,"SAN FRANCISCO","SF WATER"
"385",385,NA,2011,NA,"NEWCOMB","KEITH",1927,"CI",NA,NA,-122.3860425,37.7331111,"SAN FRANCISCO","SF WATER"
"386",386,NA,2011,NA,"BRODERICK","FILBERT",1928,"DI",NA,NA,-122.4439401,37.7969694,"SAN FRANCISCO","SF WATER"
"387",387,NA,2011,NA,"CAMPBELL","BRUSSELS",1928,"CI",NA,NA,-122.400605,37.715115,"SAN FRANCISCO","SF WATER"
"388",388,NA,2011,NA,"FULTON","25TH",1928,"CI","8",NA,-122.4842964,37.7725697,"SAN FRANCISCO","SF WATER"
"389",389,NA,2011,NA,"N FULTON","35TH",1928,"CI",NA,NA,-122.494903,37.772081,"SAN FRANCISCO","SF WATER"
"390",390,NA,2011,NA,"TERESITA","FOWLER",1928,"CI",NA,NA,-122.451594,37.7436013,"SAN FRANCISCO","SF WATER"
"391",391,NA,2011,NA,"LAIDLEY","NOE",1929,"CI",NA,NA,-122.4307497,37.7404762,"SAN FRANCISCO","SF WATER"
"392",392,NA,2011,NA,"GOETTINGEN","WARD",1930,"CI",NA,NA,-122.4030738,37.7184641,"SAN FRANCISCO","SF WATER"
"393",393,NA,2011,NA,"WAWONA","46TH",1930,"CI",NA,NA,-122.5042356,37.7361798,"SAN FRANCISCO","SF WATER"
"394",394,NA,2011,NA,"APPLETON","GLADYS",1931,"CI",NA,NA,-122.4233519,37.738601,"SAN FRANCISCO","SF WATER"
"395",395,NA,2011,NA,"KEITH","REVERE",1931,"CI",NA,NA,-122.3882984,37.7306064,"SAN FRANCISCO","SF WATER"
"396",396,NA,2011,NA,"SENECA","CAYUGA",1931,"CI",NA,NA,-122.4425086,37.7196376,"SAN FRANCISCO","SF WATER"
"397",397,NA,2011,NA,"WAWONA","36TH",1931,"CI",NA,NA,-122.4935429,37.7367077,"SAN FRANCISCO","SF WATER"
"398",398,NA,2011,NA,"29TH","FULTON",1932,"CI","6",NA,-122.488471,37.772374,"SAN FRANCISCO","SF WATER"
"399",399,NA,2011,NA,"CAROLINA","23RD",1932,"CI",NA,NA,-122.3997509,37.7546912,"SAN FRANCISCO","SF WATER"
"400",400,NA,2011,NA,"SANJOSE","BROAD",1932,NA,NA,NA,-122.453506,37.7131638,"SAN FRANCISCO","SF WATER"
"401",401,NA,2011,NA,"27TH","ULLOA ",1933,"CI",NA,NA,-122.4840896,37.7408169,"SAN FRANCISCO","SF WATER"
"402",402,NA,2011,NA,"ALEMANY","ONONDACA",1933,"CI",NA,NA,-122.4386088,37.7216374,"SAN FRANCISCO","SF WATER"
"403",403,NA,2011,NA,"JEFFERSON ","HYDE",1933,"CI",NA,NA,-122.4207678,37.8076077,"SAN FRANCISCO","SF WATER"
"404",404,NA,2011,NA,"LAIDLEY","FAIRMOUNT",1933,"CI",NA,NA,-122.4281387,37.738662,"SAN FRANCISCO","SF WATER"
"405",405,NA,2011,NA,"MT VERNON","SAN MIGUEL",1933,"CI",NA,NA,-122.4491735,37.7186935,"SAN FRANCISCO","SF WATER"
"406",406,NA,2011,NA,"NEY","CONGDON",1933,NA,NA,NA,-122.4260978,37.730137,"SAN FRANCISCO","SF WATER"
"407",407,NA,2011,NA,"BRUSSELS","WILDE",1934,"CI",NA,NA,-122.4011104,37.7163153,"SAN FRANCISCO","SF WATER"
"408",408,NA,2011,NA,"CESAR CHAVEZ","DIAMOND",1935,"CI",NA,NA,-122.4359052,37.7471722,"SAN FRANCISCO","SF WATER"
"409",409,NA,2011,NA,"KEITH","PALOU",1935,"CI",NA,NA,-122.3871703,37.7318506,"SAN FRANCISCO","SF WATER"
"410",410,NA,2011,NA,"CAYUGA","SEARS",1936,"CI","6",NA,-122.4539704,37.7096262,"SAN FRANCISCO","SF WATER"
"411",411,NA,2011,NA,"MANSELLS","SOMERSET",1936,"CI","6",NA,-122.4050566,37.7206321,"SAN FRANCISCO","SF WATER"
"412",412,NA,2011,NA,"BEMIS","CASHO",1937,"CI",NA,NA,-122.4326028,37.7358514,"SAN FRANCISCO","SF WATER"
"413",413,NA,2011,NA,"36TH","WAWONA",1940,"CI",NA,NA,-122.4935429,37.7367077,"SAN FRANCISCO","SF WATER"
"414",414,NA,2011,NA,"NAPOLEON","JERROLD",1940,"CI","8",NA,-122.4020511,37.745948,"SAN FRANCISCO","SF WATER"
"415",415,NA,2011,NA,"MARSILLY","BOSWORTH",1942,"CI","2",NA,-122.4194155,37.7749295,"SAN FRANCISCO","SF WATER"
"416",416,NA,2011,NA,"FILBERT","DAVIS",1954,"DI",NA,NA,-122.4194155,37.7749295,"SAN FRANCISCO","SF WATER"
"417",417,NA,2011,NA,"ELLSWORTH","ALEMANY",1955,"CI","8",NA,-122.4189822,37.7322097,"SAN FRANCISCO","SF WATER"
"418",418,NA,2011,NA,"HOMEWOOD","WILDWOOD",1955,"CI","4",NA,-122.460764,37.72761,"SAN FRANCISCO","SF WATER"
"419",419,NA,2011,NA,"WINFIELD","COSO",1955,"CI","6",NA,-122.4166786,37.7454949,"SAN FRANCISCO","SF WATER"
"420",420,NA,2011,NA,"CALIFORNIA","FUNSTON",1956,"CI","12",NA,-122.4720613,37.7844699,"SAN FRANCISCO","SF WATER"
"421",421,NA,2011,NA,"SOMERSET","SANBRUNO",1956,"CI",NA,NA,-122.402096,37.7136257,"SAN FRANCISCO","SF WATER"
"422",422,NA,2011,NA,"DEVONSHIRE","WARREN",1959,"CI","8",NA,-122.4612512,37.7544884,"SAN FRANCISCO","SF WATER"
"423",423,NA,2011,NA,"JOHNSTONE","MEDICAL CENTER",1959,"CI","2",NA,-122.4548775,37.7587354,"SAN FRANCISCO","SF WATER"
"424",424,NA,2011,NA,"AMBER","DUNCAN",1961,"CI",NA,NA,-122.44127,37.7452309,"SAN FRANCISCO","SF WATER"
"425",425,NA,2011,NA,"DIAMOND HEIGHT","BERKELEY N",1961,"CI",NA,NA,-122.4367287,37.7387792,"SAN FRANCISCO","SF WATER"
"426",426,NA,2011,NA,"FILLMORE","GREEN",1961,"CI","6",NA,-122.4353306,37.7961561,"SAN FRANCISCO","SF WATER"
"427",427,NA,2011,NA,"GOLD MINE DR","DIAMOND HEIGHT",1961,"CI",NA,"TRANSVERSE",-122.438588,37.7414465,"SAN FRANCISCO","SF WATER"
"428",428,NA,2011,NA,"GOLD MINE DR","288 GOLD MINE",1961,"CI",NA,NA,-122.4194155,37.7749295,"SAN FRANCISCO","SF WATER"
"429",429,NA,2011,NA,"CORBETT","GRAYSTONE",1963,"CI","6",NA,-122.4433036,37.7563953,"SAN FRANCISCO","SF WATER"
"430",430,NA,2011,NA,"ALABAMA","26TH",1964,"CI","6",NA,-122.4106736,37.7494998,"SAN FRANCISCO","SF WATER"
"431",431,NA,2011,NA,"JERROLD","TOLAND",1964,"CI","8",NA,-122.3987409,37.7440963,"SAN FRANCISCO","SF WATER"
"432",432,NA,2011,NA,"27TH","DIAMOND",1966,"CI","6",NA,-122.4358243,37.746387,"SAN FRANCISCO","SF WATER"
"433",433,NA,2011,NA,"BRUNETT","GARDEN",1967,"DI","8",NA,-122.4194155,37.7749295,"SAN FRANCISCO","SF WATER"
"434",434,NA,2011,NA,"REDROCK","DUNCAN",1972,"CI",NA,NA,-122.443374,37.7458979,"SAN FRANCISCO","SF WATER"
"435",435,NA,2011,NA,"HUDSON","CERCLATH",1975,"CI",NA,NA,-122.4194155,37.7749295,"SAN FRANCISCO","SF WATER"
"436",436,NA,2011,NA,"OTTAWA","CAYUGA",1979,"DI","6",NA,-122.4469507,37.7161907,"SAN FRANCISCO","SF WATER"
"437",437,NA,2011,NA,"BEALE","MARKET",1986,NA,NA,NA,-122.3974305,37.7924486,"SAN FRANCISCO","SF WATER"
"438",438,NA,2011,NA,"WENTWORTH","WASHINGTON",1987,"CI",NA,NA,-122.4060859,37.7952138,"SAN FRANCISCO","SF WATER"
"439",439,NA,2011,NA,"JOHNSTONE","MEDICA CENTER",1993,"DI",NA,NA,-122.4548775,37.7587354,"SAN FRANCISCO","SF WATER"
"440",440,NA,2011,NA,"GOUGH","ELLIS",1995,"DI","8",NA,-122.424329,37.7834238,"SAN FRANCISCO","SF WATER"
"441",441,NA,2011,NA,"6TH","CHANNEL",2010,"DI",NA,NA,-122.4194155,37.7749295,"SAN FRANCISCO","SF WATER"
"442",442,NA,2011,NA,"JACKSON","LAGUNA",2010,"CI","24",NA,-122.4296191,37.7930907,"SAN FRANCISCO","SF WATER"
"443",443,NA,2011,NA,"MASON","POST",2011,"CI",NA,NA,-122.4100714,37.7881097,"SAN FRANCISCO","SF WATER"
"444",444,NA,2011,NA,"MISSION","20TH",2011,"DI",NA,NA,-122.4190833,37.7586379,"SAN FRANCISCO","SF WATER"
"445",445,NA,2011,NA,"NATOMA","1ST",2011,"DI",NA,NA,-122.3965732,37.7889855,"SAN FRANCISCO","SF WATER"
"446",446,NA,2011,NA,"SAN CARLOS","20TH",2011,"DI",NA,NA,-122.4198631,37.7585891,"SAN FRANCISCO","SF WATER"
"447",447,NA,2011,NA,"CHURCH","14TH",2012,"CI","8",NA,-122.4289619,37.7677308,"SAN FRANCISCO","SF WATER"
"448",448,NA,2011,NA,"MARSILLY","BOSWORTH",2012,"CI",NA,NA,-122.4194155,37.7749295,"SAN FRANCISCO","SF WATER"
"449",449,NA,2011,NA,"TAYLOR","WASHINGTON",2012,"CI","8",NA,-122.4130289,37.7943426,"SAN FRANCISCO","SF WATER"
"450",450,NA,2011,NA,"19TH","RIVERA",NA,"CI",NA,NA,-122.4758508,37.7467916,"SAN FRANCISCO","SF WATER"
"451",451,NA,2011,NA,"19TH",NA,NA,NA,NA,NA,-122.4761096,37.7505182,"SAN FRANCISCO","SF WATER"
"452",452,NA,2011,NA,"1ST ","MISSION",NA,"DI",NA,NA,-122.3975826,37.7897863,"SAN FRANCISCO","SF WATER"
"453",453,NA,2011,NA,"22ND","POTERO",NA,NA,NA,NA,-122.4122209,37.7558338,"SAN FRANCISCO","SF WATER"
"454",454,NA,2011,NA,"ALABAMA","CESAR",NA,NA,"6",NA,-122.4105556,37.748275,"SAN FRANCISCO","SF WATER"
"455",455,NA,2011,NA,"AMBER","QUARTZ",NA,NA,NA,NA,-122.445305,37.7456249,"SAN FRANCISCO","SF WATER"
"456",456,NA,2011,NA,"AMBER","QUARTZ",NA,NA,NA,NA,-122.445305,37.7456249,"SAN FRANCISCO","SF WATER"
"457",457,NA,2011,NA,"AMBER","DUNCAN",NA,NA,"8",NA,-122.44127,37.7452309,"SAN FRANCISCO","SF WATER"
"458",458,NA,2011,NA,"HOLYORE","FELLTON",NA,NA,"6",NA,-122.4095351,37.7287566,"SAN FRANCISCO","SF WATER"
"459",459,NA,2011,NA,"JENNING","PALOU",NA,"CI",NA,NA,-122.3853046,37.7307953,"SAN FRANCISCO","SF WATER"
"460",460,NA,2011,NA,"PALOU","INCAUS",NA,"CI",NA,NA,-122.4194155,37.7749295,"SAN FRANCISCO","SF WATER"
"461",461,NA,2011,NA,"ROUSSEAU","LWORTH",NA,NA,NA,NA,-122.4194155,37.7749295,"SAN FRANCISCO","SF WATER"
"462",462,NA,2011,NA,"SENECA","CAYUSA",NA,"CI",NA,NA,-122.4425086,37.7196376,"SAN FRANCISCO","SF WATER"
"463",463,NA,2011,NA,"SS CALIF","LWORTH",NA,"DI",NA,NA,-122.4194155,37.7749295,"SAN FRANCISCO","SF WATER"
"464",464,NA,2011,NA,NA,"COURTLAND ",NA,NA,NA,NA,-122.4194155,37.7749295,"SAN FRANCISCO","SF WATER"
"465",476,"2010-01-03",2010,1095,"PROUTY WY","JOHNSON AVE",1956,"WRAPPED STEEL, CEMENT LINED","6",NA,-122.0036414,37.3066426,"SAN JOSE","SAN JOSE WATER COMPANY"
"466",477,"2010-01-04",2010,1161,"7TH ST S","KEYES",1927,"CAST IRON","4",NA,-121.87158,37.3217,"SAN JOSE","SAN JOSE WATER COMPANY"
"467",478,"2010-01-07",2010,6449,"BERWICKSHIRE WY","CAMDEN",1973,"ASBESTOS CEMENT","12",NA,-121.878696,37.222243,"SAN JOSE","SAN JOSE WATER COMPANY"
"468",479,"2010-01-08",2010,320,"DAVID AVE","DAVID AVE",1958,"CAST IRON","6",NA,-121.9443601,37.2979277,"CAMPBELL","SAN JOSE WATER COMPANY"
"469",480,"2010-01-09",2010,5396,"DUESENBERG DR","COLONY KNOLL DR",1983,"DUCTILE IRON, CEMENT LINED","6",NA,-121.840165,37.256351,"SAN JOSE","SAN JOSE WATER COMPANY"
"470",481,"2010-01-10",2010,1254,"DONCASTER WY","FARRINGDON DR",1955,"ASBESTOS CEMENT","4",NA,-121.818028,37.352852,"SAN JOSE","SAN JOSE WATER COMPANY"
"471",482,"2010-01-11",2010,4842,"MIRAMAR AVE","CASA VIEW DR",1955,"DUCTILE IRON, CEMENT LINED","6",NA,-121.987891,37.321786,"SAN JOSE","SAN JOSE WATER COMPANY"
"472",483,"2010-01-12",2010,14016,"CAMINO BARCO","ALLENDALE",1977,"ASBESTOS CEMENT","8",NA,-122.003522,37.265885,"SARATOGA","SAN JOSE WATER COMPANY"
"473",484,"2010-01-14",2010,6583,"DARTMOOR WY","DAPHNEE",1957,"WRAPPED STEEL, CEMENT LINED","8",NA,-122.020189,37.297153,"SAN JOSE","SAN JOSE WATER COMPANY"
"474",485,"2010-01-15",2010,18178,"ZELLA CT","BAY VIEW DR",2006,NA,"2",NA,-121.991945,37.1534819,"LOS GATOS","SAN JOSE WATER COMPANY"
"475",486,"2010-01-15",2010,6761,"RAINBOW DR","BRETMOOR WY",1957,"WRAPPED STEEL, CEMENT LINED","12",NA,-122.021932,37.301429,"SAN JOSE","SAN JOSE WATER COMPANY"
"476",487,"2010-01-21",2010,690,"5TH ST N","TAYLOR ST",NA,"CAST IRON","6",NA,-121.894252,37.349464,"SAN JOSE","SAN JOSE WATER COMPANY"
"477",488,"2010-01-22",2010,13810,"PIERCE RD","VIA REGINA",1947,"WRAPPED STEEL","6",NA,-122.0498804,37.2671387,"SARATOGA","SAN JOSE WATER COMPANY"
"478",489,"2010-01-26",2010,3272,"BLUE MOUNTAIN DR","MT RAINIER DR",1959,"ASBESTOS CEMENT","6",NA,-121.806359,37.350426,"SAN JOSE","SAN JOSE WATER COMPANY"
"479",490,"2010-01-27",2010,565,"BROOKS AVE","BIRD AVE",1951,"CAST IRON","4",NA,-121.897012,37.314186,"SAN JOSE","SAN JOSE WATER COMPANY"
"480",491,"2010-01-27",2010,1866,"CAMDEN AVE","LEIGH AVE",1955,"WRAPPED STEEL, CEMENT LINED","16",NA,-121.9222716,37.2616601,"SAN JOSE","SAN JOSE WATER COMPANY"
"481",492,"2010-01-28",2010,109,"DUANE ST","STATE",1907,"CAST IRON","4",NA,-121.8845447,37.3246736,"SAN JOSE","SAN JOSE WATER COMPANY"
"482",493,"2010-01-28",2010,11556,"SOUTHWOOD DR","PAYNE AVE",1949,"WRAPPED STEEL","6",NA,-121.979644,37.299754,"SARATOGA","SAN JOSE WATER COMPANY"
"483",494,"2010-01-31",2010,1234,"LINCOLN AVE","LINCOLNSHIRE WY",1935,"CAST IRON","12",NA,-121.8990082,37.3063225,"SAN JOSE","SAN JOSE WATER COMPANY"
"484",495,"2010-02-02",2010,1416,"KEONCREST AVE","W GISH",NA,"WRAPPED STEEL","6",NA,-121.910596,37.361885,"SAN JOSE","SAN JOSE WATER COMPANY"
"485",496,"2010-02-03",2010,4194,"ACAPULCO DR","FENIAN DR",1963,"FIBERGLASS-KRAFT WRAPPED (CEMENT LINED)","6",NA,-121.976208,37.280879,"CAMPBELL","SAN JOSE WATER COMPANY"
"486",497,"2010-02-05",2010,1515,"SANTA MONICA AVE","SAN ANDREAS",1954,"WRAPPED STEEL","6",NA,-121.896591,37.271202,"SAN JOSE","SAN JOSE WATER COMPANY"
"487",498,"2010-02-08",2010,3054,"ALUM ROCK AVE","S WHITE RD",1927,"CAST IRON","4",NA,-121.8285827,37.3651349,"SAN JOSE","SAN JOSE WATER COMPANY"
"488",499,"2010-02-09",2010,1431,"GLENMOOR WY","WISTERIA WY",1957,"WRAPPED STEEL","6",NA,-122.020897,37.298088,"SAN JOSE","SAN JOSE WATER COMPANY"
"489",500,"2010-02-09",2010,559,"BASCOM AVE S","PARKMOOR",1969,"FIBERGLASS-KRAFT WRAPPED (CEMENT LINED)","20",NA,-121.932242,37.317758,"SAN JOSE","SAN JOSE WATER COMPANY"
"490",501,"2010-02-10",2010,1430,"PATIO DR","PATIO DR",1955,"WRAPPED STEEL","6",NA,-121.924176,37.288383,"CAMPBELL","SAN JOSE WATER COMPANY"
"491",502,"2010-02-11",2010,1445,"BASCOM AVE S","BORELLO",1970,"FIBERGLASS-KRAFT WRAPPED (CEMENT LINED)","20",NA,-121.9321263,37.2987093,"SAN JOSE","SAN JOSE WATER COMPANY"
"492",503,"2010-02-12",2010,1136,"PHELPS AVE","PARKLAND",1958,"WRAPPED STEEL, CEMENT LINED","8",NA,-121.960763,37.305548,"SAN JOSE","SAN JOSE WATER COMPANY"
"493",504,"2010-02-16",2010,10091,"TORRANCE AVE","S WHITE RD",1952,"WRAPPED STEEL","4",NA,-121.817327,37.356043,"SAN JOSE","SAN JOSE WATER COMPANY"
"494",505,"2010-02-16",2010,10091,"TORRANCE AVE","S WHITE RD",1952,"WRAPPED STEEL","4",NA,-121.817327,37.356043,"SAN JOSE","SAN JOSE WATER COMPANY"
"495",506,"2010-02-19",2010,2476,"PARQUET CT","CURTNER AVE",1964,"ASBESTOS CEMENT","4",NA,-121.920338,37.277662,"SAN JOSE","SAN JOSE WATER COMPANY"
"496",507,"2010-02-22",2010,1001,"4TH ST N","E YOUNGER AVE",1926,"CAST IRON","4",NA,-121.9018981,37.3567868,"SAN JOSE","SAN JOSE WATER COMPANY"
"497",508,"2010-02-22",2010,1624,"COLLINGWOOD AVE","MILDRED AVE",NA,"WRAPPED STEEL, CEMENT LINED","6",NA,-121.904075,37.295729,"SAN JOSE","SAN JOSE WATER COMPANY"
"498",509,"2010-02-23",2010,1614,"COLLINGWOOD AVE","MILDRED",NA,"WRAPPED STEEL","6",NA,-121.904096,37.295958,"SAN JOSE","SAN JOSE WATER COMPANY"
"499",510,"2010-02-24",2010,321,"WASHINGTON ST","N. 7TH ST",NA,"CAST IRON","4",NA,-121.888744,37.346174,"SAN JOSE","SAN JOSE WATER COMPANY"
"500",511,"2010-03-01",2010,1551,"SAN ARDO DR","ST ANTHONY DR",1955,"ASBESTOS CEMENT","4",NA,-121.916221,37.296537,"SAN JOSE","SAN JOSE WATER COMPANY"
"501",512,"2010-03-02",2010,10355,"LOCHNER DR","CANDLER AVE",1955,"WRAPPED STEEL","8",NA,-121.812541,37.353222,"SAN JOSE","SAN JOSE WATER COMPANY"
"502",513,"2010-03-03",2010,10355,"LOCHNER DR","CANDLER AVE",1955,"ASBESTOS CEMENT","4",NA,-121.812541,37.353222,"SAN JOSE","SAN JOSE WATER COMPANY"
"503",514,"2010-03-03",2010,2480,"MCLAUGHLIN AVE","KELDON DR",1962,"FIBERGLASS-KRAFT WRAPPED (CEMENT LINED)","17",NA,-121.8346911,37.3134539,"SAN JOSE","SAN JOSE WATER COMPANY"
"504",515,"2010-03-05",2010,1458,"BAHAMA WY","FLORIDA AVE",1958,"CEMENT COATED, CEMENT LINED","6",NA,-121.840098,37.335344,"SAN JOSE","SAN JOSE WATER COMPANY"
"505",516,"2010-03-08",2010,14800,"SOBEY RD","SPRING BROOK LN.",1976,"ASBESTOS CEMENT","6",NA,-122.000116,37.253482,"SARATOGA","SAN JOSE WATER COMPANY"
"506",517,"2010-03-10",2010,923,"DIANA AVE","CINDERELLA LN",1959,"ASBESTOS CEMENT","8",NA,-121.836957,37.346581,"SAN JOSE","SAN JOSE WATER COMPANY"
"507",518,"2010-03-23",2010,14760,"WHIPPLE CT","FLEMING AVE",1958,"ASBESTOS CEMENT","4",NA,-121.813862,37.372841,"SAN JOSE","SAN JOSE WATER COMPANY"
"508",519,"2010-03-23",2010,385,"COMMERCIAL ST","N 10TH ST",1948,"WRAPPED STEEL","8",NA,-121.8983708,37.3615356,"SAN JOSE","SAN JOSE WATER COMPANY"
"509",520,"2010-03-30",2010,2048,"ELLEN AVE","MALONE",1950,"WRAPPED STEEL","6",NA,-121.885511,37.29563,"SAN JOSE","SAN JOSE WATER COMPANY"
"510",521,"2010-04-05",2010,10755,"PORTER LN","MCVAY RD",1962,"FIBERGLASS-KRAFT WRAPPED (CEMENT LINED)","8",NA,-121.813854,37.375682,"SAN JOSE","SAN JOSE WATER COMPANY"
"511",522,"2010-04-06",2010,10755,"PORTER LN","MCVAY",1962,"FIBERGLASS-KRAFT WRAPPED (CEMENT LINED)","8",NA,-121.813854,37.375682,"SAN JOSE","SAN JOSE WATER COMPANY"
"512",523,"2010-04-06",2010,10755,"PORTER LN","MCVAY DR",1962,"FIBERGLASS-KRAFT WRAPPED (CEMENT LINED)","8",NA,-121.813854,37.375682,"SAN JOSE","SAN JOSE WATER COMPANY"
"513",524,"2010-04-07",2010,115,"VIA SANTA MARIA","NINA CT",1964,"FIBERGLASS-KRAFT WRAPPED (CEMENT LINED)","6",NA,-121.959948,37.2241,"LOS GATOS","SAN JOSE WATER COMPANY"
"514",525,"2010-04-08",2010,250,"PARMER AVE","E SAN ANTONIO",1981,"DUCTILE IRON, CEMENT LINED","6",NA,-121.854805,37.347933,"SAN JOSE","SAN JOSE WATER COMPANY"
"515",526,"2010-04-10",2010,3117,"VESUVIUS LN","MAUNA KEA LN",1960,"CEMENT COATED, CEMENT LINED","6",NA,-121.852438,37.3983459,"SAN JOSE","SAN JOSE WATER COMPANY"
"516",527,"2010-04-15",2010,1308,"DELMAS AVE","MINNESOTA AVE",1975,"ASBESTOS CEMENT","6",NA,-121.890889,37.309501,"SAN JOSE","SAN JOSE WATER COMPANY"
"517",528,"2010-04-15",2010,1282,"THORNMILL WY","UMBARGER RD",1975,"ASBESTOS CEMENT","6",NA,-121.826126,37.307312,"SAN JOSE","SAN JOSE WATER COMPANY"
"518",529,"2010-04-19",2010,441,"4TH ST N","HENSLEY",NA,"CAST IRON","4",NA,-121.893104,37.344798,"SAN JOSE","SAN JOSE WATER COMPANY"
"519",530,"2010-04-20",2010,4194,"HAMILTON AVE","SAN TOMAS AQUINO",1980,"CAST IRON","6",NA,-121.976174,37.293389,"SAN JOSE","SAN JOSE WATER COMPANY"
"520",531,"2010-04-21",2010,1129,"9TH ST S","KEYES ST",1928,"CAST IRON","4",NA,-121.869749,37.323048,"SAN JOSE","SAN JOSE WATER COMPANY"
"521",532,"2010-04-27",2010,12716,"LARCHMONT AVE","SOLANA DR",1972,"ASBESTOS CEMENT","6",NA,-122.015655,37.284604,"SARATOGA","SAN JOSE WATER COMPANY"
"522",533,"2010-04-29",2010,14360,"BLOSSOM HILL RD","BOBBYWOOD AVE",1956,"WRAPPED STEEL","22",NA,-121.917261,37.235943,"LOS GATOS","SAN JOSE WATER COMPANY"
"523",534,"2010-05-05",2010,1756,"BIRD AVE","PINE AVE",1949,"CAST IRON","8",NA,-121.8852393,37.301465,"SAN JOSE","SAN JOSE WATER COMPANY"
"524",535,"2010-05-06",2010,1096,"QUEENSBRIDGE WY","BARNES LN",NA,"DUCTILE IRON, CEMENT LINED","8",NA,-121.838965,37.200622,"SAN JOSE","SAN JOSE WATER COMPANY"
"525",536,"2010-05-08",2010,1152,"STERLING GATE DR","SPRING HILL WAY",1985,"DUCTILE IRON, CEMENT LINED","10",NA,-121.845336,37.199021,"SAN JOSE","SAN JOSE WATER COMPANY"
"526",537,"2010-05-09",2010,1440,"SARATOGA SUNNYVALE RD","SHARON DR",1962,"FIBERGLASS-KRAFT WRAPPED (CEMENT LINED)","25",NA,-122.0320929,37.2767586,"SAN JOSE","SAN JOSE WATER COMPANY"
"527",538,"2010-05-18",2010,814,"11TH ST N","MISSION ST",1959,"ASBESTOS CEMENT","4",NA,-121.8912211,37.3567184,"SAN JOSE","SAN JOSE WATER COMPANY"
"528",539,"2010-05-24",2010,3982,"PERIE LN","SUNCREST",1980,"ASBESTOS CEMENT","4",NA,-121.821637,37.403519,"SAN JOSE","SAN JOSE WATER COMPANY"
"529",540,"2010-06-07",2010,1344,"MEADOWLARK AVE","BOXWOOD DR",1950,"CAST IRON","6",NA,-121.948999,37.3364649,"SAN JOSE","SAN JOSE WATER COMPANY"
"530",541,"2010-06-13",2010,17250,"PINE ST","LOS GATOS BLVD",1954,"WRAPPED STEEL, CEMENT LINED","6",NA,-121.971941,37.230822,"LOS GATOS","SAN JOSE WATER COMPANY"
"531",542,"2010-06-14",2010,NA,"ROBERT FOWLER WY","JOHN MONTGOMERY",1966,"SOMASTIC COATED, CEMENT LINED","8",NA,-121.8193541,37.3389167,"SAN JOSE","SAN JOSE WATER COMPANY"
"532",543,"2010-06-18",2010,220,"CALDWELL AVE","LOS GATOS",1949,"STANDARD SCREW (GALVANIZED OR NON-GALVANIZED)","2",NA,-121.968594,37.227965,"LOS GATOS","SAN JOSE WATER COMPANY"
"533",544,"2010-06-21",2010,71,"LESTER AVE A","LINCOLN AVE",1931,"CAST IRON","4",NA,-121.905362,37.310325,"SAN JOSE","SAN JOSE WATER COMPANY"
"534",545,"2010-06-21",2010,3584,"CLAYTON RD","MARTIN AVE",1961,"FIBERGLASS-KRAFT WRAPPED (CEMENT LINED)","6",NA,-121.794557,37.354064,"SAN JOSE","SAN JOSE WATER COMPANY"
"535",546,"2010-06-21",2010,16608,"TOPPING WY","ENGLEWOOD AVBE",1946,"WRAPPED STEEL","6",NA,-121.960424,37.22829,"LOS GATOS","SAN JOSE WATER COMPANY"
"536",547,"2010-06-22",2010,401,"HAMILTON AVE W","CARLYN AVE",1953,"CAST IRON","6",NA,-121.9558408,37.2950844,"CAMPBELL","SAN JOSE WATER COMPANY"
"537",548,"2010-06-22",2010,1035,"LOVELL AVE","SONUCA AVE",1961,"FIBERGLASS-KRAFT WRAPPED (CEMENT LINED)","6",NA,-121.966896,37.2724199,"CAMPBELL","SAN JOSE WATER COMPANY"
"538",549,"2010-06-23",2010,2407,"LOS GATOS ALMADEN RD  A","CAMINO DEL CERRO",NA,"STANDARD SCREW (GALVANIZED OR NON-GALVANIZED)","6",NA,-121.946028,37.243879,"SAN JOSE","SAN JOSE WATER COMPANY"
"539",550,"2010-06-24",2010,30,"HERNANDEZ AVE","PERAITA",1927,"CAST IRON","6",NA,-121.988893,37.227222,"LOS GATOS","SAN JOSE WATER COMPANY"
"540",551,"2010-06-25",2010,255,"MICHELLE DR","W.LATIMER AVE",1980,"CAST IRON","4",NA,-121.972459,37.290289,"CAMPBELL","SAN JOSE WATER COMPANY"
"541",552,"2010-06-28",2010,14501,"CLEARVIEW DR","LA RINCONADA",1951,"WRAPPED STEEL","6",NA,-121.974157,37.258156,"LOS GATOS","SAN JOSE WATER COMPANY"
"542",553,"2010-06-30",2010,3098,"ALUM ROCK AVE","WHITE ROAD",1927,"CAST IRON","4",NA,-121.8282147,37.3656774,"SAN JOSE","SAN JOSE WATER COMPANY"
"543",554,"2010-07-06",2010,1422,"CALIENTE WY","MONTE CRESTA WY",1964,"FIBERGLASS-KRAFT WRAPPED (CEMENT LINED)","10",NA,-121.863348,37.398568,"SAN JOSE","SAN JOSE WATER COMPANY"
"544",555,"2010-07-12",2010,15560,"CAMINO DEL CERRO","CAMINO DEL CERO",NA,"STANDARD SCREW (GALVANIZED OR NON-GALVANIZED)","6",NA,-121.945685,37.242768,"LOS GATOS","SAN JOSE WATER COMPANY"
"545",556,"2010-07-13",2010,647,"NAVAJO CT","INDIAN",1961,"ASBESTOS CEMENT","4",NA,-121.8408,37.246985,"SAN JOSE","SAN JOSE WATER COMPANY"
"546",557,"2010-07-13",2010,486,"CAMPBELL AVE E","DILLON AVE",1940,"CAST IRON","6",NA,-121.9410778,37.2868614,"CAMPBELL","SAN JOSE WATER COMPANY"
"547",558,"2010-07-14",2010,2370,"RUBY AVE","CHAPALA DR",1990,"WRAPPED STEEL","6",NA,-121.788189,37.341319,"SAN JOSE","SAN JOSE WATER COMPANY"
"548",559,"2010-07-15",2010,1501,"SAN FERNANDO ST E","S. 31ST ST",NA,"CAST IRON","4",NA,-121.859347,37.3489829,"SAN JOSE","SAN JOSE WATER COMPANY"
"549",560,"2010-07-19",2010,1481,"CHIPLAY DR","CLIFFWOOD DR",1959,"CEMENT COATED, CEMENT LINED","6",NA,-121.836266,37.335463,"SAN JOSE","SAN JOSE WATER COMPANY"
"550",561,"2010-07-19",2010,2649,"GEORGINIA AVE","CAMAS AVE",1959,"CEMENT COATED, CEMENT LINED","6",NA,-121.832106,37.356197,"SAN JOSE","SAN JOSE WATER COMPANY"
"551",562,"2010-07-19",2010,1301,"SPENCER AVE","DOROTHY AVE",1946,"CAST IRON","6",NA,-121.889743,37.310549,"SAN JOSE","SAN JOSE WATER COMPANY"
"552",563,"2010-07-19",2010,2670,"MONTEREY RD","UMBARGER RD",1948,"WRAPPED STEEL","10",NA,-121.851945,37.295744,"SAN JOSE","SAN JOSE WATER COMPANY"
"553",564,"2010-07-20",2010,10725,"MARTINWOOD WY","GILLICK WY",1961,"WRAPPED STEEL, CEMENT LINED","6",NA,-122.028425,37.312227,"CUPERTINO","SAN JOSE WATER COMPANY"
"554",565,"2010-07-21",2010,21711,"IRMA LYLE DR","DOROTHY WY",2006,"GALVANIZED","2",NA,-121.993236,37.150554,"LOS GATOS","SAN JOSE WATER COMPANY"
"555",566,"2010-07-26",2010,248,"HARDING AVE","VISTA DEL CAMPO",1958,"WRAPPED STEEL, CEMENT LINED","12",NA,-121.964916,37.22424,"LOS GATOS","SAN JOSE WATER COMPANY"
"556",567,"2010-07-28",2010,17031,"LOS CERRITOS","CRESCENT",1975,"ASBESTOS CEMENT","6",NA,-121.96035,37.221617,"LOS GATOS","SAN JOSE WATER COMPANY"
"557",568,"2010-07-29",2010,774,"SOLITO CT","LOMA PRIETA DR",1965,"ASBESTOS CEMENT","4",NA,-121.84608,37.241527,"SAN JOSE","SAN JOSE WATER COMPANY"
"558",569,"2010-07-30",2010,2490,"WHITETHORNE DR","WHITETHORNE DR",1959,"ASBESTOS CEMENT","4",NA,-121.937994,37.30026,"SAN JOSE","SAN JOSE WATER COMPANY"
"559",570,"2010-07-30",2010,5380,"COLONY GREEN DR","COLONY KNOLL",1983,"DUCTILE IRON, CEMENT LINED","6",NA,-121.8407113,37.2577421,"SAN JOSE","SAN JOSE WATER COMPANY"
"560",571,"2010-08-02",2010,5380,"COLONY GREEN DR","CHYNOWETH AVE",1983,"DUCTILE IRON, CEMENT LINED","6",NA,-121.8407113,37.2577421,"SAN JOSE","SAN JOSE WATER COMPANY"
"561",572,"2010-08-03",2010,21711,"IRMA LYLE DR","DOROTHY",2006,"STANDARD SCREW (GALVANIZED OR NON-GALVANIZED)","2",NA,-121.993236,37.150554,"LOS GATOS","SAN JOSE WATER COMPANY"
"562",573,"2010-08-04",2010,2400,"MONTEREY HY","OLD TULLY RD",NA,"STANDARD SCREW (GALVANIZED OR NON-GALVANIZED)","3",NA,-121.8578487,37.3007694,"SAN JOSE","SAN JOSE WATER COMPANY"
"563",574,"2010-08-04",2010,12015,"SARATOGA SUNNYVALE RD","PROSPECT RD",1962,"FIBERGLASS-KRAFT WRAPPED (CEMENT LINED)","19",NA,-122.032734,37.2936234,"SARATOGA","SAN JOSE WATER COMPANY"
"564",575,"2010-08-05",2010,4202,"STEVENS CREEK BL","KIELY",1951,"WRAPPED STEEL, CEMENT LINED","6",NA,-121.9762394,37.322792,"SAN JOSE","SAN JOSE WATER COMPANY"
"565",576,"2010-08-05",2010,8145,"PRESIDIO DR","NEW HAVEN CT",1963,"FIBERGLASS-KRAFT WRAPPED (CEMENT LINED)","6",NA,-122.053419,37.313554,"CUPERTINO","SAN JOSE WATER COMPANY"
"566",577,"2010-08-05",2010,1175,"HILLSDALE AVE","CALVARY WY",1965,"FIBERGLASS-KRAFT WRAPPED (CEMENT LINED)","8",NA,-121.8810318,37.275219,"SAN JOSE","SAN JOSE WATER COMPANY"
"567",578,"2010-08-09",2010,2204,"WREN WY","RINCON AVE",1955,"ASBESTOS CEMENT","4",NA,-121.96493,37.281789,"CAMPBELL","SAN JOSE WATER COMPANY"
"568",579,"2010-08-10",2010,14943,"GRANITE CT","CRISP AVE",1972,"ASBESTOS CEMENT","6",NA,-122.011931,37.251575,"SARATOGA","SAN JOSE WATER COMPANY"
"569",580,"2010-08-10",2010,396,"2ND ST N","BASSETT ST",1942,"SHEET IRON PIPE","6",NA,-121.893952,37.343231,"SAN JOSE","SAN JOSE WATER COMPANY"
"570",581,"2010-08-10",2010,12900,"SARATOGA AVE LS","COX",1950,"WRAPPED STEEL","10",NA,-122.002577,37.2805029,"SARATOGA","SAN JOSE WATER COMPANY"
"571",582,"2010-08-11",2010,14510,"OAK ST","SARATOGA LG RD",1950,"WRAPPED STEEL","12",NA,-122.03197,37.25712,"SARATOGA","SAN JOSE WATER COMPANY"
"572",583,"2010-08-20",2010,15795,"ALTA VISTA WY E","PARK WY",1997,"ASBESTOS CEMENT","4",NA,-121.811913,37.389266,"SAN JOSE","SAN JOSE WATER COMPANY"
"573",584,"2010-08-20",2010,NA,"MONTEREY","SAN JOSE AVE",1946,"WRAPPED STEEL","20",NA,-121.8700622,37.312637,"SAN JOSE","SAN JOSE WATER COMPANY"
"574",585,"2010-08-23",2010,12900,"ARROYO DE ARGUELLO","WARDELL RD",1970,"ASBESTOS CEMENT","6",NA,-122.039494,37.281033,"SARATOGA","SAN JOSE WATER COMPANY"
"575",586,"2010-08-23",2010,6583,"DARTMOOR WY","DAPHNE DR",1957,"WRAPPED STEEL, CEMENT LINED","8",NA,-122.020189,37.297153,"SAN JOSE","SAN JOSE WATER COMPANY"
"576",587,"2010-08-27",2010,1814,"BIRD AVE","PINE AVE",1949,"CAST IRON","6",NA,-121.884613,37.300784,"SAN JOSE","SAN JOSE WATER COMPANY"
"577",588,"2010-08-29",2010,6561,"HIDDEN CREEK DR","ALMADEN RD",1964,"FIBERGLASS-KRAFT WRAPPED (CEMENT LINED)","6",NA,-121.858782,37.22003,"SAN JOSE","SAN JOSE WATER COMPANY"
"578",589,"2010-09-01",2010,4162,"ROSENBAUM AVE","DUICEY DR",1967,"SOMASTIC COATED, CEMENT LINED","12",NA,-121.842146,37.273232,"SAN JOSE","SAN JOSE WATER COMPANY"
"579",590,"2010-09-02",2010,20740,"REID LN","SARATOGA/SUNNY",1954,"WRAPPED STEEL, CEMENT LINED","6",NA,-122.035994,37.2632,"SARATOGA","SAN JOSE WATER COMPANY"
"580",591,"2010-09-03",2010,949,"DOREL DR","PENITENCIA CRK",1986,"WRAPPED STEEL","8",NA,-121.829115,37.397881,"SAN JOSE","SAN JOSE WATER COMPANY"
"581",592,"2010-09-04",2010,1613,"CLAYTON RD","FALL AVE",1951,"WRAPPED STEEL","6",NA,-121.798801,37.355386,"SAN JOSE","SAN JOSE WATER COMPANY"
"582",593,"2010-09-05",2010,5301,"DAIMLER CT","CHYNOWETH",1983,"DUCTILE IRON, CEMENT LINED","6",NA,-121.839204,37.258772,"SAN JOSE","SAN JOSE WATER COMPANY"
"583",594,"2010-09-08",2010,22459,"PALM AVE","S. FOOTHILL BL",NA,"WRAPPED STEEL","6",NA,-122.067654,37.316996,"CUPERTINO","SAN JOSE WATER COMPANY"
"584",595,"2010-09-09",2010,14525,"BIG BASIN WY","4TH ST",1916,"CAST IRON","4",NA,-122.0344472,37.256988,"SARATOGA","SAN JOSE WATER COMPANY"
"585",596,"2010-09-10",2010,1898,"BETHANY AVE","LARGO",1972,"ASBESTOS CEMENT","8",NA,-121.876512,37.405539,"SAN JOSE","SAN JOSE WATER COMPANY"
"586",597,"2010-09-13",2010,570,"FISK AVE","BIRD AVE",1942,"SHEET IRON PIPE","6",NA,-121.89727,37.3145499,"SAN JOSE","SAN JOSE WATER COMPANY"
"587",598,"2010-09-13",2010,100,"PINTA CT","VIA SANTA MARIA",1964,"FIBERGLASS-KRAFT WRAPPED (CEMENT LINED)","6",NA,-121.959463,37.223253,"LOS GATOS","SAN JOSE WATER COMPANY"
"588",599,"2010-09-14",2010,4635,"ROYAL FOREST CT","BRANHAM LN",1974,"ASBESTOS CEMENT","6",NA,-121.849595,37.265891,"SAN JOSE","SAN JOSE WATER COMPANY"
"589",600,"2010-09-15",2010,135,"PIERCE AVE","COLTON PL",1969,"CAST IRON","6",NA,-121.886737,37.326889,"SAN JOSE","SAN JOSE WATER COMPANY"
"590",601,"2010-09-15",2010,3365,"VALLEY SQUARE LN","EDEN AVE",1965,"FIBERGLASS-KRAFT WRAPPED (CEMENT LINED)","6",NA,-121.956965,37.302593,"SAN JOSE","SAN JOSE WATER COMPANY"
"591",602,"2010-09-15",2010,599,"PARK MEADOW DR","MITTY WAY",1955,"WRAPPED STEEL, CEMENT LINED","12",NA,-121.991305,37.3160219,"SAN JOSE","SAN JOSE WATER COMPANY"
"592",603,"2010-09-16",2010,6098,"SALIDA DEL SOL","SANTA TERESA BL",1965,"SOMASTIC COATED, CEMENT LINED","6",NA,-121.849518,37.238779,"SAN JOSE","SAN JOSE WATER COMPANY"
"593",604,"2010-09-18",2010,20278,"PACIFICA DR","TORRE AVE",1965,"FIBERGLASS-KRAFT WRAPPED (CEMENT LINED)","12",NA,-122.028831,37.315954,"CUPERTINO","SAN JOSE WATER COMPANY"
"594",605,"2010-09-20",2010,1430,"PATIO DR","PETER DR",1955,"WRAPPED STEEL, CEMENT LINED","8",NA,-121.924176,37.288383,"CAMPBELL","SAN JOSE WATER COMPANY"
"595",606,"2010-09-20",2010,5718,"TUCSON DR","CARLSBAD DR",1963,"FIBERGLASS-KRAFT WRAPPED (CEMENT LINED)","8",NA,-121.87586,37.247242,"SAN JOSE","SAN JOSE WATER COMPANY"
"596",607,"2010-09-20",2010,1283,"SUNNY CT","MCLAUGHLIN",1958,"WRAPPED STEEL, CEMENT LINED","12",NA,-121.859602,37.341899,"SAN JOSE","SAN JOSE WATER COMPANY"
"597",608,"2010-09-21",2010,2942,"VERNA DR","FRANCIS DR",1952,"WRAPPED STEEL, CEMENT LINED","4",NA,-121.841107,37.376854,"SAN JOSE","SAN JOSE WATER COMPANY"
"598",609,"2010-09-21",2010,1675,"WHITWOOD LN","BUCKNALL RD",1962,"FIBERGLASS-KRAFT WRAPPED (CEMENT LINED)","6",NA,-121.97916,37.284631,"CAMPBELL","SAN JOSE WATER COMPANY"
"599",610,"2010-09-22",2010,711,"HENRY AVE S","FENLEY AVE",1955,"ASBESTOS CEMENT","4",NA,-121.9560074,37.3142192,"SAN JOSE","SAN JOSE WATER COMPANY"
"600",611,"2010-09-23",2010,5913,"TOMPKINS DR","STRAYER",1967,"FIBERGLASS-KRAFT WRAPPED (CEMENT LINED)","8",NA,-122.006824,37.307571,"SAN JOSE","SAN JOSE WATER COMPANY"
"601",612,"2010-09-23",2010,10418,"PALO VISTA RD","PALM AVE",NA,"WRAPPED STEEL","8",NA,-122.065914,37.31698,"CUPERTINO","SAN JOSE WATER COMPANY"
"602",613,"2010-09-23",2010,1480,"SARATOGA AVE LS","ATHERTON",1950,"WRAPPED STEEL","10",NA,-121.9953552,37.2885515,"SAN JOSE","SAN JOSE WATER COMPANY"
"603",614,"2010-09-23",2010,1298,"TOPAZ AVE","PAYNE AVE",1959,"WRAPPED STEEL, CEMENT LINED","12",NA,-121.969569,37.301268,"SAN JOSE","SAN JOSE WATER COMPANY"
"604",615,"2010-09-24",2010,949,"DOREL DR","PENETENCIA CREEK",1980,"WRAPPED STEEL, CEMENT LINED","8",NA,-121.829115,37.397881,"SAN JOSE","SAN JOSE WATER COMPANY"
"605",616,"2010-09-25",2010,1232,"RUNNYMEDE DR","YUBA DR",1965,"FIBERGLASS-KRAFT WRAPPED (CEMENT LINED)","6",NA,-121.9573696,37.3028831,"SAN JOSE","SAN JOSE WATER COMPANY"
"606",617,"2010-09-28",2010,1035,"MINNESOTA AVE","BLEWETT AVE",1967,"CAST IRON","8",NA,-121.8962465,37.30453,"SAN JOSE","SAN JOSE WATER COMPANY"
"607",618,"2010-09-29",2010,1765,"ENSENADA DR","RIO SERENA DR",1980,"CAST IRON","4",NA,-121.980267,37.2883319,"CAMPBELL","SAN JOSE WATER COMPANY"
"608",619,"2010-09-29",2010,22191,"MCCLELLAN RD","LINDA VISTA DR",NA,"DUCTILE IRON, CEMENT LINED","8",NA,-122.061022,37.313754,"CUPERTINO","SAN JOSE WATER COMPANY"
"609",620,"2010-09-29",2010,1590,"DE ROSE WY","FRANCISCO AVE",1962,"FIBERGLASS-KRAFT WRAPPED (CEMENT LINED)","17",NA,-121.921403,37.303422,"SAN JOSE","SAN JOSE WATER COMPANY"
"610",621,"2010-09-30",2010,11588,"SOUTHWOOD DR","COLOMBO DR",1949,"WRAPPED STEEL","6",NA,-121.980389,37.299102,"SARATOGA","SAN JOSE WATER COMPANY"
"611",622,"2010-10-01",2010,20303,"CALLE MONTALVO","MONTALVO",1963,"ASBESTOS CEMENT","4",NA,-122.027965,37.252389,"SARATOGA","SAN JOSE WATER COMPANY"
"612",623,"2010-10-04",2010,1203,"MADRONA AVE","CURTNER AVE",1950,"CAST IRON","6",NA,-121.892007,37.290403,"SAN JOSE","SAN JOSE WATER COMPANY"
"613",624,"2010-10-04",2010,494,"GREENDALE WY 1","NORWALK DR",1963,"SOMASTIC COATED, CEMENT LINED","8",NA,-121.982766,37.318578,"SAN JOSE","SAN JOSE WATER COMPANY"
"614",625,"2010-10-04",2010,7495,"STANFORD PL","KENTWOOD AVE",1960,"ASBESTOS CEMENT","10",NA,-122.037594,37.306741,"CUPERTINO","SAN JOSE WATER COMPANY"
"615",626,"2010-10-07",2010,1116,"SUNNY CT","MCLAUGHLIN",1958,"WRAPPED STEEL, CEMENT LINED","12",NA,-121.860879,37.340325,"SAN JOSE","SAN JOSE WATER COMPANY"
"616",627,"2010-10-08",2010,10315,"WUNDERLICH DR","MENHART",1952,"WRAPPED STEEL, CEMENT LINED","6",NA,-122.000994,37.31829,"CUPERTINO","SAN JOSE WATER COMPANY"
"617",628,"2010-10-13",2010,21535,"MONROVIA ST","BUBB RD",1965,"FIBERGLASS-KRAFT WRAPPED (CEMENT LINED)","6",NA,-122.051346,37.30194,"CUPERTINO","SAN JOSE WATER COMPANY"
"618",629,"2010-10-20",2010,3584,"OLSEN DR","CYPRESS AVE",1953,"WRAPPED STEEL","6",NA,-121.963056,37.318276,"SAN JOSE","SAN JOSE WATER COMPANY"
"619",630,"2010-10-21",2010,1430,"CURTISS AVE","MICHIGAN AVE",NA,"CAST IRON","4",NA,-121.8927593,37.3055157,"SAN JOSE","SAN JOSE WATER COMPANY"
"620",631,"2010-10-22",2010,2788,"WOODMOOR DR","MONTEVIDEO DR",1959,"WRAPPED STEEL, CEMENT LINED","6",NA,-121.81928,37.344548,"SAN JOSE","SAN JOSE WATER COMPANY"
"621",632,"2010-10-26",2010,17985,"HELEN WY","MARY ALICE WY",2006,"STANDARD SCREW (GALVANIZED OR NON-GALVANIZED)","2",NA,-121.985852,37.1561809,"LOS GATOS","SAN JOSE WATER COMPANY"
"622",633,"2010-10-27",2010,6706,"TRINIDAD DR","ELWOOD DR/CHICO",1973,"ASBESTOS CEMENT","6",NA,-121.859373,37.215551,"SAN JOSE","SAN JOSE WATER COMPANY"
"623",634,"2010-10-28",2010,296,"MCCREERY AVE","KAMMERER AVE",1947,"CAST IRON","6",NA,-121.846848,37.349286,"SAN JOSE","SAN JOSE WATER COMPANY"
"624",635,"2010-10-29",2010,7,"CENTRAL AVE W","CENTRAL AVE",1948,"GALVANIZED","2",NA,-121.978176,37.214722,"LOS GATOS","SAN JOSE WATER COMPANY"
"625",636,"2010-10-31",2010,631,"12TH ST N","E TAYLOR ST",1928,"CAST IRON","4",NA,-121.887931,37.353097,"SAN JOSE","SAN JOSE WATER COMPANY"
"626",637,"2010-11-03",2010,1930,"ALMADEN RD","MALONE ROAD",1939,"WRAPPED STEEL","6",NA,-121.8800351,37.3000693,"SAN JOSE","SAN JOSE WATER COMPANY"
"627",638,"2010-11-05",2010,449,"SAINT JAMES ST E","N 10TH ST",2009,"DUCTILE IRON, CEMENT LINED","8",NA,-121.883532,37.343729,"SAN JOSE","SAN JOSE WATER COMPANY"
"628",639,"2010-11-08",2010,3513,"MARTEN AVE","INDIAN CREEK CT",1972,"ASBESTOS CEMENT","6",NA,-121.796615,37.35136,"SAN JOSE","SAN JOSE WATER COMPANY"
"629",640,"2010-11-08",2010,1310,"STOCKBRIDGE DR","PAYNE",1980,"CAST IRON","6",NA,-121.96999,37.300628,"SAN JOSE","SAN JOSE WATER COMPANY"
"630",641,"2010-11-10",2010,1500,"LEIGH AVE","HAMILTON PL",1962,"FIBERGLASS-KRAFT WRAPPED (CEMENT LINED)","17",NA,-121.9220399,37.2964351,"SAN JOSE","SAN JOSE WATER COMPANY"
"631",642,"2010-11-11",2010,6149,"COUNTESS DR","DINAPOLI DR",1961,"FIBERGLASS-KRAFT WRAPPED (CEMENT LINED)","6",NA,-122.012129,37.3040779,"SAN JOSE","SAN JOSE WATER COMPANY"
"632",643,"2010-11-15",2010,16327,"MAYA WY","AZTEC RIDGE DR",1991,"ASBESTOS CEMENT","6",NA,-121.959134,37.209898,"LOS GATOS","SAN JOSE WATER COMPANY"
"633",644,"2010-11-15",2010,NA,"JACKSON ST","CENTRAL AVE",1935,"CAST IRON","6",NA,-121.9764879,37.2163431,"LOS GATOS","SAN JOSE WATER COMPANY"
"634",645,"2010-11-17",2010,6453,"HIDDEN CREEK CT","HEATHER CREEK D",NA,"ASBESTOS CEMENT","4",NA,-121.859283,37.222226,"SAN JOSE","SAN JOSE WATER COMPANY"
"635",646,"2010-11-19",2010,6484,"RAMBLEWOOD DR","HIDDEN CREEK DR",1964,"FIBERGLASS-KRAFT WRAPPED (CEMENT LINED)","6",NA,-121.859486,37.221214,"SAN JOSE","SAN JOSE WATER COMPANY"
"636",647,"2010-11-23",2010,1260,"DAVIS ST","MORSE",1926,"CAST IRON","4",NA,-121.9279968,37.3405392,"SAN JOSE","SAN JOSE WATER COMPANY"
"637",648,"2010-11-28",2010,725,"12TH ST N","TAYLOR ST",1928,"CAST IRON","4",NA,-121.889376,37.355022,"SAN JOSE","SAN JOSE WATER COMPANY"
"638",649,"2010-12-01",2010,1374,"PILAND DR","SHAYNOR CT",1980,"CAST IRON","4",NA,-121.966761,37.298863,"SAN JOSE","SAN JOSE WATER COMPANY"
"639",650,"2010-12-02",2010,14392,"UNION AVE A","CAMDEN & UNION",1953,"STANDARD SCREW (GALVANIZED OR NON-GALVANIZED)","2",NA,-121.9313543,37.2602327,"SAN JOSE","SAN JOSE WATER COMPANY"
"640",651,"2010-12-02",2010,5983,"MAYFLOWER CT","TARTARIAN WY",1966,"ASBESTOS CEMENT","4",NA,-122.00867,37.295132,"SAN JOSE","SAN JOSE WATER COMPANY"
"641",652,"2010-12-02",2010,21536,"LOCUST DR","SANTANA",2006,NA,"4",NA,-121.988697,37.155112,"LOS GATOS","SAN JOSE WATER COMPANY"
"642",653,"2010-12-02",2010,1471,"SARATOGA SUNNYVALE RD","WILDFLOWER WY",1962,"FIBERGLASS-KRAFT WRAPPED (CEMENT LINED)","12",NA,-122.0324796,37.3449409,"CUPERTINO","SAN JOSE WATER COMPANY"
"643",654,"2010-12-06",2010,22344,"RIVERSIDE DR","DEANZA RD",NA,"ASBESTOS CEMENT","6",NA,-122.066174,37.310318,"CUPERTINO","SAN JOSE WATER COMPANY"
"644",655,"2010-12-06",2010,533,"LEIGH AVE","SCOTT ST",1950,"CAST IRON","6",NA,-121.924149,37.318756,"SAN JOSE","SAN JOSE WATER COMPANY"
"645",656,"2010-12-06",2010,1430,"PATIO DR","PETER DR",1955,"WRAPPED STEEL, CEMENT LINED","8",NA,-121.924176,37.288383,"CAMPBELL","SAN JOSE WATER COMPANY"
"646",657,"2010-12-06",2010,1430,"PATIO DR","PETER DR",1955,"WRAPPED STEEL, CEMENT LINED","8",NA,-121.924176,37.288383,"CAMPBELL","SAN JOSE WATER COMPANY"
"647",658,"2010-12-07",2010,1470,"BONGATE CT","LATIMER",1958,"ASBESTOS CEMENT","4",NA,-121.982756,37.296997,"SAN JOSE","SAN JOSE WATER COMPANY"
"648",659,"2010-12-08",2010,1416,"KEONCREST AVE","GISH W",1946,"WRAPPED STEEL","6",NA,-121.910596,37.361885,"SAN JOSE","SAN JOSE WATER COMPANY"
"649",660,"2010-12-09",2010,14224,"LOVELAND CT","JUNIPER LN",1966,"ASBESTOS CEMENT","4",NA,-122.023927,37.26169,"SARATOGA","SAN JOSE WATER COMPANY"
"650",661,"2010-12-10",2010,1260,"BRANHAM LN","DESIN DR",1959,"WRAPPED STEEL, CEMENT LINED","17",NA,-121.8829014,37.2602208,"SAN JOSE","SAN JOSE WATER COMPANY"
"651",662,"2010-12-11",2010,3796,"PERIE LN","SUNCREST &PERIE",1986,"DUCTILE IRON, CEMENT LINED","8",NA,-121.827844,37.4010279,"SAN JOSE","SAN JOSE WATER COMPANY"
"652",663,"2010-12-12",2010,5305,"STUDEBAKER CI","CHYNOWETH AVE",1983,"DUCTILE IRON, CEMENT LINED","6",NA,-121.835835,37.25878,"SAN JOSE","SAN JOSE WATER COMPANY"
"653",664,"2010-12-13",2010,211,"CALDWELL AVE","LOS GATOS BL",1949,"CAST IRON","2",NA,-121.969452,37.22792,"LOS GATOS","SAN JOSE WATER COMPANY"
"654",665,"2010-12-13",2010,1068,"CHERRY AVE","WILLOW ST",NA,"SHEET IRON PIPE","6",NA,-121.906985,37.307002,"SAN JOSE","SAN JOSE WATER COMPANY"
"655",666,"2010-12-13",2010,3969,"VIA SALICE","TANKIT DR",1963,"CEMENT COATED, CEMENT LINED","6",NA,-121.971309,37.282828,"CAMPBELL","SAN JOSE WATER COMPANY"
"656",667,"2010-12-14",2010,326,"REDWOOD AVE S","STEVENS CREEK",1941,"SHEET IRON PIPE","4",NA,-121.946517,37.322573,"SAN JOSE","SAN JOSE WATER COMPANY"
"657",668,"2010-12-14",2010,326,"REDWOOD AVE S","STEVENS CREEK BLVD",1941,"SHEET IRON PIPE","4",NA,-121.946517,37.322573,"SAN JOSE","SAN JOSE WATER COMPANY"
"658",669,"2010-12-14",2010,3969,"VIA SALICE","TANKIT DR",1963,"CEMENT COATED, CEMENT LINED","6",NA,-121.971309,37.282828,"CAMPBELL","SAN JOSE WATER COMPANY"
"659",670,"2010-12-16",2010,6484,"RAMBLEWOOD DR","HIDDEN CREEK DR",1964,"FIBERGLASS-KRAFT WRAPPED (CEMENT LINED)","6",NA,-121.859486,37.221214,"SAN JOSE","SAN JOSE WATER COMPANY"
"660",671,"2010-12-22",2010,1762,"SCOTT ST","LEIGH AVE",1950,"CAST IRON","6",NA,-121.924158,37.31946,"SAN JOSE","SAN JOSE WATER COMPANY"
"661",672,"2010-12-24",2010,1715,"EMORY ST","GARDEN DR",1937,"CAST IRON","6",NA,-121.930856,37.331641,"SAN JOSE","SAN JOSE WATER COMPANY"
"662",673,"2010-12-27",2010,1748,"COOLEY DR","LYNETTE WY",1980,"DUCTILE IRON, CEMENT LINED","6",NA,-121.848951,37.348507,"SAN JOSE","SAN JOSE WATER COMPANY"
"663",674,"2010-12-27",2010,1108,"SPRINGFIELD DR","PAUP DR",1980,"CAST IRON","8",NA,-121.969271,37.291441,"CAMPBELL","SAN JOSE WATER COMPANY"
"664",675,"2010-12-29",2010,404,"15TH ST N","WASHINGTON ST",1924,"SHEET IRON PIPE","6",NA,-121.880895,37.34976,"SAN JOSE","SAN JOSE WATER COMPANY"
"665",676,"2010-12-29",2010,1762,"CASTRO DR","CALADO AVE",1980,"CAST IRON","6",NA,-121.980178,37.289874,"SAN JOSE","SAN JOSE WATER COMPANY"
"666",677,"2011-01-05",2011,55,"EL CAMPO DR","ALUM ROCK AVE",1950,"WRAPPED STEEL, CEMENT LINED","6",NA,-121.823499,37.374605,"SAN JOSE","SAN JOSE WATER COMPANY"
"667",678,"2011-01-05",2011,5733,"ALMADEN EXPY","BLOSSOM HILL ROAD",1963,"FIBERGLASS-KRAFT WRAPPED (CEMENT LINED)","6",NA,-121.8754195,37.250394,"SAN JOSE","SAN JOSE WATER COMPANY"
"668",679,"2011-01-05",2011,868,"PALM ST","OAK ST",1903,"CAST IRON","6",NA,-121.8867651,37.3196122,"SAN JOSE","SAN JOSE WATER COMPANY"
"669",680,"2011-01-05",2011,6008,"CROSSVIEW CI","MAZZONE",1978,"ASBESTOS CEMENT","6",NA,-121.869318,37.233589,"SAN JOSE","SAN JOSE WATER COMPANY"
"670",681,"2011-01-05",2011,520,"6TH ST N 1","JACKSON &EMPIRE",1996,"DUCTILE IRON, CEMENT LINED","10",NA,-121.8921559,37.348317,"SAN JOSE","SAN JOSE WATER COMPANY"
"671",682,"2011-01-10",2011,398,"20TH ST S","E WILLIAM",1921,"CAST IRON","4",NA,-121.8656606,37.3394112,"SAN JOSE","SAN JOSE WATER COMPANY"
"672",683,"2011-01-10",2011,1535,"STURGEON WY","PLYMOUTH AVE",1965,"FIBERGLASS-KRAFT WRAPPED (CEMENT LINED)","6",NA,-122.014227,37.296033,"SAN JOSE","SAN JOSE WATER COMPANY"
"673",684,"2011-01-12",2011,21237,"ALMADEN RD","BERTRAM",1957,"WRAPPED STEEL, CEMENT LINED","6",NA,-121.817541,37.180112,"SAN JOSE","SAN JOSE WATER COMPANY"
"674",685,"2011-01-12",2011,14516,"OAK ST","SARATOGA LOS GATOS ROAD",1961,"FIBERGLASS-KRAFT WRAPPED (CEMENT LINED)","25",NA,-122.032031,37.256979,"SARATOGA","SAN JOSE WATER COMPANY"
"675",686,"2011-01-13",2011,46,"25TH ST N","SANTA CLARA",NA,"CAST IRON","4",NA,-121.867139,37.34819,"SAN JOSE","SAN JOSE WATER COMPANY"
"676",687,"2011-01-13",2011,33,"15TH ST S","E. SANTA CLARA ST",1902,"STANDARD SCREW (GALVANIZED OR NON-GALVANIZED)","4",NA,-121.876033,37.342223,"SAN JOSE","SAN JOSE WATER COMPANY"
"677",688,"2011-01-17",2011,498,"4TH ST S","E WILLIAM ST",1890,"CAST IRON","3",NA,-121.8817188,37.3303628,"SAN JOSE","SAN JOSE WATER COMPANY"
"678",689,"2011-01-19",2011,1399,"ARNOLD AVE","GISH RD",1946,"WRAPPED STEEL","8",NA,-121.911322,37.360741,"SAN JOSE","SAN JOSE WATER COMPANY"
"679",690,"2011-01-20",2011,1253,"WASHOE DR","FALLEN RIVER",1962,"FIBERGLASS-KRAFT WRAPPED (CEMENT LINED)","6",NA,-121.870175,37.218646,"SAN JOSE","SAN JOSE WATER COMPANY"
"680",691,"2011-01-21",2011,315,"5TH ST N","JULIAN ST",1892,"CAST IRON","4",NA,-121.890237,37.342782,"SAN JOSE","SAN JOSE WATER COMPANY"
"681",692,"2011-01-21",2011,6540,"PAJARO WY","PAJARO WY",1962,"DUCTILE IRON (UNLINED)","6",NA,-121.86799,37.219016,"SAN JOSE","SAN JOSE WATER COMPANY"
"682",693,"2011-01-26",2011,1431,"PETER DR","PETER CT",1956,"WRAPPED STEEL, CEMENT LINED","8",NA,-121.9241801,37.2881267,"CAMPBELL","SAN JOSE WATER COMPANY"
"683",694,"2011-01-29",2011,1965,"WINTERPARK WY","CUNNINGHAM AVE",1962,"CEMENT COATED, CEMENT LINED","6",NA,-121.826584,37.332635,"SAN JOSE","SAN JOSE WATER COMPANY"
"684",695,"2011-02-01",2011,1772,"COOLEY CT","S KING RD",1980,"DUCTILE IRON, CEMENT LINED","6",NA,-121.8481771,37.3488642,"SAN JOSE","SAN JOSE WATER COMPANY"
"685",696,"2011-02-02",2011,141,"FOSS AVE","ALUM ROCK",1984,"DUCTILE IRON, CEMENT LINED","6",NA,-121.84061,37.356813,"SAN JOSE","SAN JOSE WATER COMPANY"
"686",697,"2011-02-02",2011,1104,"HUSTED AVE","LINCOLN AVE",1949,"WRAPPED STEEL","10",NA,-121.885442,37.286025,"SAN JOSE","SAN JOSE WATER COMPANY"
"687",698,"2011-02-02",2011,14333,"SARATOGA AVE","LA PALOMA",1961,"FIBERGLASS-KRAFT WRAPPED (CEMENT LINED)","25",NA,-122.029349,37.260469,"SARATOGA","SAN JOSE WATER COMPANY"
"688",699,"2011-02-03",2011,5172,"TISDALE WY","LA SALLE WY",1960,"ASBESTOS CEMENT","6",NA,-121.991222,37.274515,"SAN JOSE","SAN JOSE WATER COMPANY"
"689",700,"2011-02-04",2011,905,"ROSE BLOSSOM DR","LILACT CT",1959,"ASBESTOS CEMENT","4",NA,-122.044001,37.312311,"CUPERTINO","SAN JOSE WATER COMPANY"
"690",701,"2011-02-04",2011,5722,"RUDY DR","ALMOND BLOSSOM",1958,"WRAPPED STEEL, CEMENT LINED","6",NA,-121.905631,37.233119,"SAN JOSE","SAN JOSE WATER COMPANY"
"691",702,"2011-02-07",2011,6290,"WALBROOK DR W","MILLER AVE",1960,"WRAPPED STEEL, CEMENT LINED","6",NA,-122.014708,37.300233,"SAN JOSE","SAN JOSE WATER COMPANY"
"692",703,"2011-02-07",2011,1117,"STAFFORD DR","YORKSHIRE DR",1963,"FIBERGLASS-KRAFT WRAPPED (CEMENT LINED)","6",NA,-122.047372,37.306025,"CUPERTINO","SAN JOSE WATER COMPANY"
"693",704,"2011-02-09",2011,1694,"JAMESTOWN DR","PROSPECT RD",1964,"FIBERGLASS-KRAFT WRAPPED (CEMENT LINED)","6",NA,-122.034036,37.294094,"CUPERTINO","SAN JOSE WATER COMPANY"
"694",705,"2011-02-10",2011,2841,"MONTE CRESTA WY","CALIENTE WY",1964,"FIBERGLASS-KRAFT WRAPPED (CEMENT LINED)","6",NA,-121.864139,37.398831,"SAN JOSE","SAN JOSE WATER COMPANY"
"695",706,"2011-02-18",2011,1505,"HERVEY LN","PADRES DR",1963,"FIBERGLASS-KRAFT WRAPPED (CEMENT LINED)","6",NA,-121.88747,37.306164,"SAN JOSE","SAN JOSE WATER COMPANY"
"696",707,"2011-02-22",2011,6906,"SERENITY CT","SERENITY WAY",1968,NA,"4",NA,-121.848801,37.210607,"SAN JOSE","SAN JOSE WATER COMPANY"
"697",708,"2011-02-22",2011,6290,"WALBROOK DR W","MILLER AVE",1960,"WRAPPED STEEL, CEMENT LINED","6",NA,-122.014708,37.300233,"SAN JOSE","SAN JOSE WATER COMPANY"
"698",709,"2011-02-22",2011,37,"KING RD S","SHORTRIDGE DR",1925,"CAST IRON","6",NA,-121.8552418,37.352122,"SAN JOSE","SAN JOSE WATER COMPANY"
"699",710,"2011-02-22",2011,133,"KING RD S","WHITTON AVE",1925,"CAST IRON","6",NA,-121.853985,37.3506829,"SAN JOSE","SAN JOSE WATER COMPANY"
"700",711,"2011-02-22",2011,14641,"BIG BASIN WY","6TH ST",1931,"CAST IRON","12",NA,-122.0370477,37.2557059,"SARATOGA","SAN JOSE WATER COMPANY"
"701",712,"2011-02-23",2011,1705,"HARMIL WY","PINE",NA,"CAST IRON","4",NA,-121.890176,37.299625,"SAN JOSE","SAN JOSE WATER COMPANY"
"702",713,"2011-02-23",2011,1460,"SARATOGA AVE","LOS FELICE DR",1950,"WRAPPED STEEL","10",NA,-121.985566,37.296877,"SAN JOSE","SAN JOSE WATER COMPANY"
"703",714,"2011-02-23",2011,14029,"OAK HOLLOW LN","HERRIMAN AVE",1960,"WRAPPED STEEL, CEMENT LINED","12",NA,-122.026548,37.26546,"SARATOGA","SAN JOSE WATER COMPANY"
"704",715,"2011-02-27",2011,3795,"PERIE LN","SUNCREST AVE",2000,"DUCTILE IRON, CEMENT LINED","8",NA,-121.828364,37.401644,"SAN JOSE","SAN JOSE WATER COMPANY"
"705",716,"2011-02-28",2011,125,"DOVER ST","DOVER CT",1970,NA,"4",NA,-121.943182,37.236613,"LOS GATOS","SAN JOSE WATER COMPANY"
"706",717,"2011-03-04",2011,1409,"HERVEY LN","MINNESOTA AVE",1952,"WRAPPED STEEL","4",NA,-121.8893899,37.3080895,"SAN JOSE","SAN JOSE WATER COMPANY"
"707",718,"2011-03-05",2011,1928,"HARMIL WY","BYERLEY",1947,"CAST IRON","6",NA,-121.887513,37.297066,"SAN JOSE","SAN JOSE WATER COMPANY"
"708",719,"2011-03-07",2011,3077,"DAVID AVE","WINCHESTER AVE",1956,"CAST IRON","8",NA,-121.948947,37.297803,"SAN JOSE","SAN JOSE WATER COMPANY"
"709",720,"2011-03-08",2011,22270,"KENDLE ST","VISTA KNOLL BL",NA,"WRAPPED STEEL","8",NA,-122.065002,37.327711,"CUPERTINO","SAN JOSE WATER COMPANY"
"710",721,"2011-03-09",2011,15870,"ALTA VISTA WY E","HIGHLAND AVE",1957,"ASBESTOS CEMENT","4",NA,-121.81245,37.390428,"SAN JOSE","SAN JOSE WATER COMPANY"
"711",722,"2011-03-09",2011,3125,"LANEVIEW DR","MORRILL AVE",1964,"CEMENT COATED, CEMENT LINED","6",NA,-121.87199,37.414838,"SAN JOSE","SAN JOSE WATER COMPANY"
"712",723,"2011-03-09",2011,14921,"VICKERY AVE","LOMITA AVE",1960,"FIBERGLASS-KRAFT WRAPPED (CEMENT LINED)","25",NA,-122.03283,37.250576,"SARATOGA","SAN JOSE WATER COMPANY"
"713",724,"2011-03-11",2011,14287,"CHESTER AVE","VIA TESSORO",1977,"ASBESTOS CEMENT","12",NA,-122.006157,37.2612219,"SARATOGA","SAN JOSE WATER COMPANY"
"714",725,"2011-03-14",2011,14931,"VICKERY LN","LOMITA AVE",1960,"WRAPPED STEEL, CEMENT LINED","25",NA,-122.032539,37.251439,"SARATOGA","SAN JOSE WATER COMPANY"
"715",726,"2011-03-23",2011,1041,"VISTA OAK","EL GRANDE DR",1960,"WRAPPED STEEL, CEMENT LINED","6",NA,-121.834715,37.394577,"SAN JOSE","SAN JOSE WATER COMPANY"
"716",727,"2011-03-23",2011,145,"GOODYEAR ST","PLUM ST",1951,"CAST IRON","6",NA,-121.880526,37.318385,"SAN JOSE","SAN JOSE WATER COMPANY"
"717",728,"2011-03-24",2011,18709,"PASEO LADO","PASEO PRESADA",1950,"WRAPPED STEEL","6",NA,-121.997913,37.279941,"SARATOGA","SAN JOSE WATER COMPANY"
"718",729,"2011-04-04",2011,716,"HARRISON ST","FULLER AVE",1946,"ASBESTOS CEMENT","4",NA,-121.898691,37.318976,"SAN JOSE","SAN JOSE WATER COMPANY"
"719",730,"2011-04-05",2011,1047,"OWSLEY AVE","STORY RD",1960,"FIBERGLASS-KRAFT WRAPPED (CEMENT LINED)","8",NA,-121.8545376,37.3303886,"SAN JOSE","SAN JOSE WATER COMPANY"
"720",731,"2011-04-06",2011,2860,"GAY AVE","PLEASANT RIDGE",1946,"STANDARD SCREW (GALVANIZED OR NON-GALVANIZED)","3",NA,-121.835917,37.368392,"SAN JOSE","SAN JOSE WATER COMPANY"
"721",732,"2011-04-12",2011,21811,"VIA REGINA","PIERCE ROAD",1994,"DUCTILE IRON, CEMENT LINED","8",NA,-122.052622,37.2683419,"SARATOGA","SAN JOSE WATER COMPANY"
"722",733,"2011-04-13",2011,3990,"WILLIAMS RD","DAFFODIL WY",1946,"WRAPPED STEEL","6",NA,-121.971439,37.3080659,"SAN JOSE","SAN JOSE WATER COMPANY"
